category,is_closed,latitude,longitude,name,rating,review_count,district
newamerican,,34.046195000000004,-118.261698,464,4.0,2395,los angeles
coffee,,34.07956779999999,-118.30928490000002,101 Coffee Shop,4.5,403,west hollywood
mediterranean,,34.0489812,-118.2589574,10e,4.0,612,los angeles
mediterranean,,34.0489812,-118.2589574,25 Degrees,4.0,614,los angeles
burgers,,34.101411,-118.341748,33 Taps Silver Lake,3.5,1853,west hollywood
burgers,,34.101411,-118.341748,6th & La Brea Brewery & Restaurant,3.5,1854,west hollywood
sportsbars,,34.0908543,-118.2783261,71 Above,4.5,324,los angeles
italian,,34.08347702,-118.36648559999999,77 Kentucky,4.0,169,west hollywood
ramen,,34.0484525,-118.23909209999998,800 Degrees Woodfired Kitchen,4.0,2681,los angeles
sportsbars,,34.0908543,-118.2783261,A Food Affair,4.5,326,los angeles
burgers,,34.07905579,-118.3611374,A-Frame,4.0,1499,west hollywood
breweries,,34.06469,-118.34368,ACA Grill,4.0,298,west hollywood
breweries,,34.06469,-118.34368,Ackee Bamboo Jamaican Cuisine,4.0,299,west hollywood
tradamerican,,34.0511203,-118.2543221,Adamae,4.0,1707,los angeles
french,,34.051909,-118.3843212,Aduke African cuisine,4.5,1239,beverly hills
breakfast_brunch,,34.097807,-118.362255,Aeirloom Bakery,4.0,5741,west hollywood
newamerican,,34.046079999999996,-118.23489,Agra Cafe,4.0,859,los angeles
french,,34.051909,-118.3843212,Ahgassi Gopchang,4.5,1241,beverly hills
argentine,,34.0574375,-118.29374309999999,AJ's Tex-Mex & Barbecue,4.5,430,los angeles
argentine,,34.0574375,-118.29374309999999,Al & Bea's Mexican Food,4.5,430,los angeles
caribbean,,34.00574,-118.33183000000001,AL Basch Chicken,4.0,343,inglewood
caribbean,,34.00574,-118.33183000000001,Al Wazir Chicken,4.0,343,inglewood
newamerican,,34.076190000000004,-118.25656000000001,Alamo Drafthouse Cinema Downtown Los Angeles,4.5,53,los angeles
newamerican,,34.076190000000004,-118.25656000000001,Alaska Seafood,4.5,53,los angeles
african,,34.05272,-118.37456,Alchemist Coffee Project,4.0,71,beverly hills
african,,34.05272,-118.37456,Alcove Café & Bakery,4.0,69,beverly hills
mexican,,34.021171,-118.21276,Alfred Coffee Melrose Place,4.5,830,huntington park
korean,,34.06340679,-118.3038818,Alibi Room,4.5,1291,los angeles
korean,,34.06340679,-118.3038818,Aliki's Greek Taverna,4.5,1292,los angeles
seafood,False,34.0728,-118.37363,Alimento,4.5,664,west hollywood
tex-mex,,34.15779307,-118.3973857,All About the Bread,4.5,194,west hollywood
tex-mex,,34.15779307,-118.3973857,All Time,4.5,195,west hollywood
chicken_wings,,34.067454299999994,-118.30961909999999,All' Angolo Pizza & Pasta,4.5,552,west hollywood
mexican,,34.04534,-118.21398,All'Acqua,4.0,680,los angeles
mediterranean,,34.09850002,-118.34930659999999,Almaza,5.0,219,west hollywood
mideastern,,34.10203,-118.32191,Aloha Café,4.0,550,west hollywood
movietheaters,,34.04809,-118.2589433,Alta West Adams,4.5,107,los angeles
movietheaters,,34.04809,-118.2589433,Amacita,4.5,110,los angeles
movietheaters,,34.04809,-118.2589433,Amphai Northern Thai Food,4.5,111,los angeles
seafood,,34.07649,-118.30151000000001,Anarkali Indian Restaurant,4.5,126,west hollywood
seafood,,34.07649,-118.30151000000001,Andre's Italian Restaurant,4.5,127,west hollywood
seafood,,34.07649,-118.30151000000001,Angelini Osteria,4.5,127,west hollywood
coffee,,34.060212,-118.29132800000001,Angry Birdz,4.5,1058,los angeles
coffee,,34.060212,-118.29132800000001,Angry Chicken,4.5,1059,los angeles
tapasmallplates,False,34.10052,-118.32927,Angry Chickz,4.5,967,west hollywood
coffee,,34.060212,-118.29132800000001,Animal,4.5,1059,los angeles
bakeries,,34.106215,-118.28776,Antequera De Oaxaca,4.0,4185,glendale
bakeries,,34.106215,-118.28776,Antico Restaurant,4.0,4186,glendale
korean,,34.06309902,-118.2971334,Antigua Coffee House,4.0,729,los angeles
italian,,34.103041999999995,-118.29185700000001,Anzu Japanese Gourmet,4.0,945,glendale
lounges,,33.99689,-118.42653999999999,AOC,4.0,1466,culver city
lounges,,33.99689,-118.42653999999999,Apollonia's Pizzeria,4.0,1466,culver city
lounges,,33.99689,-118.42653999999999,Arashi Sushi,4.0,1467,culver city
lounges,,33.99689,-118.42653999999999,Araya's Place - Thai Vegan Restaurant,4.0,1467,culver city
sushi,,34.04529488,-118.2384584,Arctic Hotspot Bakery & Cafe,4.0,1032,los angeles
greek,,33.95247039,-118.38524199999999,Ariyoshi Sushi Cafe Izakaya,4.5,1016,inglewood
greek,,33.95247039,-118.38524199999999,Aroma Cafe,4.5,1015,inglewood
sandwiches,,34.0836847,-118.34475900000001,Asian Box,4.0,990,west hollywood
newamerican,,34.08695394,-118.37675300000001,Aslan Mediterranean Cuisine,3.5,2274,west hollywood
french,False,34.07208,-118.36748999999999,Asso Pasta Bar & Wine,4.0,2033,west hollywood
korean,,34.06190712,-118.30968159999999,Asuka,4.0,626,west hollywood
coffee,,34.1088282,-118.2872851,Atlacatl Restaurant,4.5,231,glendale
italian,,34.1184299,-118.25971000000001,Atrium,4.0,575,glendale
newamerican,False,34.054358,-118.25133899999999,Atwater Village Tavern,4.0,1877,los angeles
italian,,34.1184299,-118.25971000000001,Au Lac,4.0,575,glendale
mediterranean,,34.02948,-118.38901000000001,Auburn,4.0,537,culver city
mediterranean,,34.02948,-118.38901000000001,Ave 26 Taco Stand,4.0,537,culver city
foodtrucks,,34.034644,-118.241766,Awash Restaurant,4.0,978,los angeles
burgers,,34.069511,-118.276321,Awesome Coffee,4.0,1207,los angeles
breakfast_brunch,,34.0472167,-118.23888500000001,Ay-Do-No Korean BBQ,4.0,656,los angeles
breakfast_brunch,,34.0472167,-118.23888500000001,Ayara Thai Cuisine,4.0,656,los angeles
soulfood,,34.032779999999995,-118.35994,Azay,4.0,234,culver city
soulfood,,34.032779999999995,-118.35994,Azla,4.0,235,culver city
thai,,34.10199,-118.30323,Baby's Badass Burgers,4.0,888,west hollywood
tex-mex,,34.023008000000004,-118.39482,Bacari W 3rd,4.0,42,culver city
thai,,34.098273,-118.306147,Bacari W. Adams,5.0,49,west hollywood
thai,,34.098273,-118.306147,Backyard Bowls,5.0,50,west hollywood
indpak,,34.083659999999995,-118.34326999999999,Bäco Mercat,4.0,2529,west hollywood
indpak,,34.083659999999995,-118.34326999999999,Badmaash - Downtown LA,4.0,2530,west hollywood
indpak,,34.083659999999995,-118.34326999999999,Badmaash - Fairfax,4.0,2530,west hollywood
indpak,,34.083659999999995,-118.34326999999999,Baja's Grill,4.0,2531,west hollywood
french,,34.07206,-118.36735,Baldoria,4.0,1813,west hollywood
vegan,,34.04565336,-118.2324523,Bamboo Restaurant,4.0,915,los angeles
tradamerican,False,34.0511203,-118.2543221,Banditos Tacos & Tequila,4.0,1708,los angeles
indpak,,34.083659999999995,-118.34326999999999,Banh Oui,4.0,2531,west hollywood
italian,,34.0711906,-118.35994170000001,Bao Dim Sum House,4.0,1163,west hollywood
italian,,34.0711906,-118.35994170000001,Bao Hiroo,4.0,1164,west hollywood
italian,,34.0711906,-118.35994170000001,BaoHaus,4.0,1164,west hollywood
italian,,34.07642,-118.34908999999999,BAR Ama,4.5,1724,west hollywood
wine_bars,False,34.0734651,-118.3818814,Barbara's At The Brewery,4.0,2204,beverly hills
italian,,34.07642,-118.34908999999999,Barbrix Restaurant & Wine Bar,4.5,1725,west hollywood
italian,,34.07642,-118.34908999999999,barcito,4.5,1725,west hollywood
italian,,34.07642,-118.34908999999999,Barkada,4.5,1726,west hollywood
italian,,34.07642,-118.34908999999999,Baroo,4.5,1726,west hollywood
southern,,34.102039000000005,-118.299858,Barton G - Los Angeles,4.5,725,glendale
southern,,34.102039000000005,-118.299858,Bavel,4.5,726,glendale
chicken_wings,,34.04787729,-118.3254493,BBQ + Rice,4.5,135,west hollywood
newamerican,,34.079289,-118.361585,BBQ + RICE Korean BBQ Bowls,4.0,3322,west hollywood
mexican,,34.083399,-118.313686,BCD Tofu House,4.0,189,west hollywood
italian,,34.076570000000004,-118.31101000000001,Beachwood Cafe,4.0,49,west hollywood
breakfast_brunch,,34.09019089,-118.2777252,Beauty & Essex,4.0,1628,los angeles
italian,,34.076570000000004,-118.31101000000001,Beelman's,4.0,49,west hollywood
wine_bars,,34.0734651,-118.3818814,Beer Belly,4.0,2204,beverly hills
pizza,,34.06188,-118.34278,Beetle House LA,4.0,389,west hollywood
pizza,,34.06188,-118.34278,Beignet Box,4.0,390,west hollywood
sushi,,34.04210281,-118.2636871,Belizean Paradise,4.0,727,los angeles
vegan,,34.0763201,-118.3659884,Benny's Tacos & Chicken Rotisserie,4.5,615,west hollywood
sushi,,34.06194,-118.34573,Bento Man,4.0,1033,west hollywood
mediterranean,,34.039926799999996,-118.4233433,Berlins,4.0,306,culver city
mediterranean,,34.10262892,-118.2919436,Berry Que,4.5,904,glendale
mediterranean,,34.039926799999996,-118.4233433,Best Fish Taco In Ensenada,4.0,306,culver city
mediterranean,,34.039926799999996,-118.4233433,Bestia,4.0,307,culver city
gluten_free,,34.05293432,-118.2571827,BESTIES Vegan Paradise,4.0,162,los angeles
salvadoran,,34.07655,-118.294522,Beut,4.0,466,los angeles
newamerican,,34.1040989,-118.291367,Beverly Soon Tofu Restaurant,4.0,257,glendale
mexican,,34.052409999999995,-118.30071000000001,Bhan Kanom Thai,4.0,2120,los angeles
sushi,,34.083659999999995,-118.34331,Bibi's Bakery & Cafe,4.0,627,west hollywood
newamerican,,34.1040989,-118.291367,BIBIBOP Asian Grill,4.0,258,glendale
vegan,,34.05635905,-118.25093670000001,Biergarten,4.0,873,los angeles
vegan,,34.05635905,-118.25093670000001,Big Ants BBQ,4.0,875,los angeles
newamerican,,34.083690000000004,-118.33988000000001,Bird on the Tree Cafe,4.5,72,west hollywood
newamerican,,34.083690000000004,-118.33988000000001,Bird's Nest Cafe,4.5,72,west hollywood
foodstands,,34.08296202,-118.21700770000001,Birdies,4.5,1297,los angeles
foodstands,,34.08296202,-118.21700770000001,Birds Rotisserie Chicken Cafe & Bar,4.5,1299,los angeles
bbq,,34.10183154,-118.3184482,Biriyani Kabob House,4.0,468,west hollywood
thai,,33.95878,-118.39451000000001,Birrieria Don Boni,4.0,1977,inglewood
thai,,33.95878,-118.39451000000001,Birrieria Los Gonzalez,4.0,1977,inglewood
french,,34.084159,-118.338194,BKK101 Thai Cuisine,4.0,808,west hollywood
newamerican,,34.095259999999996,-118.29498000000001,BKLA,4.0,1634,glendale
thai,,33.95878,-118.39451000000001,Black Hogg Sandwiches,4.0,1979,inglewood
korean,,34.069114899999995,-118.3073944,Black Sheep Burgers,4.0,853,west hollywood
thai,,33.95878,-118.39451000000001,Blackbird Pizza Shop,4.0,1979,inglewood
japanese,,34.05074824,-118.2417126,Blackship,5.0,17,los angeles
ethiopian,,34.0173639,-118.27831440000001,Blacksmiths,4.5,376,los angeles
newamerican,,34.07172,-118.36485,Blair's Restaurant,4.5,253,west hollywood
korean,,34.0693,-118.29253,Bloom Cafe,4.5,503,los angeles
vegan,,34.0763201,-118.3659884,Blossom Restaurant,4.5,615,west hollywood
sandwiches,,34.083594899999994,-118.34200609999999,Blossom Vietnamese Restaurant,5.0,5,west hollywood
coffee,,34.116939,-118.261573,Blu Elefant Cafe,4.0,850,glendale
newamerican,,34.07172,-118.36485,Blu Jam Cafe,4.5,255,west hollywood
italian,,34.03447,-118.28341,Blu Jam Café,4.0,1353,los angeles
vegetarian,,34.0762049,-118.37026750000001,Bludso's Bar & Que,4.5,456,west hollywood
vegetarian,,34.0762049,-118.37026750000001,Blue Cow Kitchen & Bar,4.5,456,west hollywood
mediterranean,,34.0477539,-118.24735729999999,Blue Palms Brewhouse,4.0,2535,los angeles
mediterranean,,34.0477539,-118.24735729999999,Bluestone Lane,4.0,2535,los angeles
indpak,,34.05099796,-118.2449263,Bo Daddy’s BBQ,4.0,1714,los angeles
tikibars,False,34.10187,-118.33383,BOA Steakhouse,4.5,359,west hollywood
vegan,,34.08279,-118.32404,Bodhi Bowl,4.0,2076,west hollywood
indpak,,34.05099796,-118.2449263,Bolt,4.0,1715,los angeles
ramen,,34.04987591,-118.2423097,Bon Juk,3.5,3010,los angeles
indpak,,34.07878,-118.36113,Bon Shabu,4.0,214,west hollywood
seafood,,34.06107,-118.29325,Bon Temps,4.0,27,los angeles
sandwiches,,34.09954004,-118.3291696,BongChu,4.5,150,west hollywood
argentine,,34.0839249,-118.36307990000002,Boo's Philly Cheesesteaks - Koreatown,4.5,964,west hollywood
sandwiches,,34.09954004,-118.3291696,Boo's Philly Cheesesteaks - Silverlake,4.5,151,west hollywood
sandwiches,,34.083594899999994,-118.34200609999999,Boolieya,5.0,4,west hollywood
mideastern,False,34.041509999999995,-118.23261000000001,Bootleg Pizza,4.5,1069,los angeles
sandwiches,,34.083594899999994,-118.34200609999999,Border Grill Downtown LA,5.0,4,west hollywood
tradamerican,,34.093984000000006,-118.32763899999999,Bossa Nova Brazilian Cuisine,4.0,1677,west hollywood
sandwiches,,34.083594899999994,-118.34200609999999,Bossa Nova on Sunset,5.0,5,west hollywood
sandwiches,,34.083594899999994,-118.34200609999999,Botanica Restaurant & Market,5.0,5,west hollywood
dimsum,,34.07577,-118.36981999999999,Bottega Louie,4.0,2772,west hollywood
dimsum,,34.07577,-118.36981999999999,Bourgeois Pig,4.0,2775,west hollywood
dimsum,,34.07577,-118.36981999999999,Bowery Bungalow,4.0,2775,west hollywood
korean,,34.05786,-118.30273999999999,Braazo Pizza,4.0,1798,los angeles
dimsum,,34.07577,-118.36981999999999,Brera Ristorante,4.0,2779,west hollywood
seafood,False,34.083628000000004,-118.330168,Breva Restaurant,4.5,2631,west hollywood
dimsum,,34.07577,-118.36981999999999,BROKEN MOUTH | Lee's Homestyle,4.0,2779,west hollywood
japanese,,34.047270000000005,-118.23463999999998,Broken Shaker Los Angeles,4.5,58,los angeles
japanese,,34.047270000000005,-118.23463999999998,Broken Spanish,4.5,59,los angeles
taiwanese,,34.0615395,-118.2397114,Brothers Bbq,4.0,525,los angeles
tex-mex,,34.0483374,-118.24778059999998,Brothers Sandwich Shop,4.0,1184,los angeles
tex-mex,,34.0483374,-118.24778059999998,Brothers Shabuhouse,4.0,1185,los angeles
wine_bars,,34.10406977,-118.27293999999999,Brownstone LA,4.0,1137,glendale
wine_bars,,34.10406977,-118.27293999999999,Buca di Beppo Italian Restaurant,4.0,1138,glendale
cocktailbars,,34.040358000000005,-118.26341969999999,Buil Samgye Tang,4.0,312,los angeles
chinese,,34.02843528,-118.2757835,Bulan Thai Vegetarian Kitchen,4.0,58,los angeles
cocktailbars,,34.040358000000005,-118.26341969999999,Bulgogi Hut,4.0,312,los angeles
tapasmallplates,,34.0941,-118.32733999999999,Buna Ethiopian Restaurant & Market,4.5,279,west hollywood
tapasmallplates,,34.0941,-118.32733999999999,Bunker Hill Bar & Grill,4.5,280,west hollywood
tapasmallplates,,34.0941,-118.32733999999999,Burger Lounge,4.5,280,west hollywood
newamerican,,34.09053,-118.29057,Burgerim,4.0,24,los angeles
newamerican,,34.08695394,-118.37675300000001,Burgerlords Chinatown,3.5,2273,west hollywood
newamerican,,34.08695394,-118.37675300000001,Burgers Never Say Die,3.5,2274,west hollywood
mideastern,,34.041509999999995,-118.23261000000001,bushi by JINYA,4.5,1065,los angeles
mideastern,,34.041509999999995,-118.23261000000001,Button Mash,4.5,1064,los angeles
korean,,34.052859999999995,-118.29235,by CHLOE. Silver Lake,4.0,1455,los angeles
mideastern,,34.041509999999995,-118.23261000000001,Byul Gobchang,4.5,1064,los angeles
gastropubs,,34.09883,-118.32908,C&M Cafe,3.5,1725,west hollywood
beer_and_wine,,34.075313,-118.323881,CaCao Mexicatessen,4.5,887,west hollywood
mideastern,,34.041509999999995,-118.23261000000001,Cactus Taqueria #1,4.5,1066,los angeles
asianfusion,False,34.0404035,-118.2535117,Cafe Angelino,5.0,664,los angeles
korean,,34.06286026,-118.2975703,Cafe Beaujolais,4.5,1557,los angeles
mideastern,,34.041509999999995,-118.23261000000001,Cafe Brasil,4.5,1066,los angeles
korean,,34.09049,-118.31391,Cafe Creole,5.0,78,west hollywood
italian,,34.07642,-118.34908999999999,Cafe Dulce,4.5,1726,west hollywood
korean,,34.098144899999994,-118.35043490000001,Cafe Gratitude,4.5,229,west hollywood
korean,,34.098144899999994,-118.35043490000001,Cafe Gratitude - Larchmont,4.5,229,west hollywood
icecream,,34.04756325,-118.3279804,Cafe Korobokgur,4.5,444,west hollywood
mexican,,34.13166,-118.35262,Cafe London Monochrome,4.5,657,west hollywood
korean,,34.06208625,-118.3026584,Cafe Los Feliz,4.0,3973,los angeles
vegetarian,,34.06217,-118.23561000000001,Cafe Mak,4.5,639,los angeles
korean,,34.06208625,-118.3026584,Cafe Midi,4.0,3978,los angeles
spanish,,34.069973600000004,-118.37655900000001,Café Stella,4.0,3783,beverly hills
korean,,34.063681,-118.306458,Cafe Teragram,3.5,2173,west hollywood
vegan,,34.10768,-118.26677,Café Tropical,4.5,830,glendale
korean,,34.06208625,-118.3026584,Cafe Vida - Culver City,4.0,3979,los angeles
mexican,,34.0634262,-118.24567169999999,Cafe Vietnam Truck,4.0,870,los angeles
korean,,34.056163,-118.309877,Cafecito Organico,4.5,416,west hollywood
japanese,,34.04002,-118.44326000000001,Calavera Burrito Co.,4.0,1240,culver city
newamerican,,34.11993,-118.32132,CALI PHO NIA,3.5,406,west hollywood
vegan,,34.04552,-118.25086999999999,California Chicken Cafe,4.5,312,los angeles
gastropubs,False,34.06207586,-118.3455771,California Ramen Factory,4.0,1081,west hollywood
vegan,,34.04552,-118.25086999999999,Calle Tacos,4.5,312,los angeles
gastropubs,,34.064332,-118.30854599999999,Candela,4.0,2350,west hollywood
thai,,34.09784367,-118.31833770000001,Canter's Deli,4.5,1712,west hollywood
gastropubs,,34.064332,-118.30854599999999,Cantinho Brasileiro,4.0,2350,west hollywood
mediterranean,,34.0477539,-118.24735729999999,Cardamom Indian Cuisine,4.0,2535,los angeles
newamerican,,34.102131,-118.33628799999998,Carlitos Gardel Argentine Steakhouse,3.5,1826,west hollywood
newamerican,,34.102131,-118.33628799999998,Carnes Asadas Pancho Lopez,3.5,1829,west hollywood
newamerican,,34.102131,-118.33628799999998,Carney's Sunset Strip,3.5,1833,west hollywood
desserts,,34.1431,-118.3964,Carnitas Michoacan,5.0,3,west hollywood
caribbean,,34.0514736,-118.3442814,Carousel Restaurant,4.5,144,west hollywood
mexican,,33.95998,-118.41685,Carrera Cafe,4.5,1920,el segundo
sandwiches,,34.04762,-118.32758000000001,Casa Bianca Pizza Pie,4.5,830,west hollywood
mexican,,33.95998,-118.41685,Casa Fina Restaurant & Cantina,4.5,1921,el segundo
mexican,,33.95998,-118.41685,Casa La Doña,4.5,1925,el segundo
japanese,,34.04511261,-118.30883030000001,Casa Noodle Teriyaki,4.0,230,los angeles
bubbletea,,34.07295286,-118.3755598,Casa Sanchez,4.5,915,west hollywood
bubbletea,,34.07295286,-118.3755598,Cascabel,4.5,916,west hollywood
mexican,,34.1010002,-118.2872851,Cassell's Hamburgers,4.0,2121,glendale
vietnamese,,34.067257299999994,-118.23563329999999,Castle BBQ,4.0,1378,los angeles
italian,,34.03402,-118.22918999999999,Castle's Catering,4.5,5847,los angeles
italian,,34.03402,-118.22918999999999,Catch 56,4.5,5849,los angeles
italian,,34.03402,-118.22918999999999,Cattle & Claw,4.5,5849,los angeles
italian,,34.03402,-118.22918999999999,CAVA,4.5,5853,los angeles
italian,,34.03402,-118.22918999999999,Caveman Kitchen,4.5,5853,los angeles
shavedice,,34.07606119,-118.3453605,Cena Vegan,4.5,650,west hollywood
vegan,,34.09523,-118.29583999999998,Ceviche Project,5.0,38,glendale
korean,,34.06577,-118.30847,Chadolpoong,4.5,30,west hollywood
korean,,34.052859999999995,-118.29235,Chakan Sul Lung Tang,4.0,1455,los angeles
desserts,,34.1431,-118.3964,Chan Dara Restaurant,5.0,3,west hollywood
korean,,34.052859999999995,-118.29235,Charlie's Famous Fried Chicken,4.0,1454,los angeles
korean,,34.0981349,-118.32749540000002,Charlie's Fish & Chips,4.0,114,west hollywood
gastropubs,,34.07485257,-118.308903,Chef Kang Food Rehab,4.0,779,west hollywood
brazilian,,34.0982846,-118.3466992,Cherry Pick Cafe,3.5,3067,west hollywood
bbq,,34.10393479,-118.2377386,Chi Spacca,4.5,90,glendale
bbq,,34.10393479,-118.2377386,Chibiscus Asian Cafe,4.5,91,glendale
ramen,,34.0401532,-118.4424537,Chicas Tacos,4.0,1692,culver city
coffee,,34.062402,-118.343631,Chicharroland,4.5,112,west hollywood
cafes,,34.0344334,-118.29168490000002,Chichen Itza Restaurant,4.0,693,los angeles
bars,False,34.101795,-118.33239280000001,ChiMac Star,4.0,931,west hollywood
italian,,34.08335868,-118.3247249,Chimney Coffee House,4.0,1523,west hollywood
chickenshop,,34.04183631,-118.2590469,Chin's Hawaiian Teriyaki Bbq Chicken,4.0,1733,los angeles
wine_bars,,34.0734651,-118.3818814,Chinchikurin,4.0,2204,beverly hills
chickenshop,,34.04183631,-118.2590469,Chinchikurin - Little Tokyo,4.0,1735,los angeles
chickenshop,,34.04183631,-118.2590469,Chinese Friends Restaurant,4.0,1738,los angeles
korean,False,34.069114899999995,-118.3073648,Choeng Wun Korean BBQ Buffet Restaurant,5.0,9,west hollywood
sushi,,34.06194,-118.34573,Choi Ga Nei Korean BBQ,4.0,1032,west hollywood
newamerican,,34.10538345,-118.3189041,Chosun Galbee,4.0,916,west hollywood
vegan,,34.09751546,-118.36526570000001,Chung Ki Wa,4.5,979,west hollywood
pakistani,,34.0693318,-118.2925028,Chungchun Rice Hotdogs,4.5,811,los angeles
pakistani,,34.0693318,-118.2925028,Chunju Han-il Kwan,4.5,812,los angeles
mexican,,34.04714,-118.21798999999999,Churros La Paloma,4.5,416,los angeles
mexican,,34.04714,-118.21798999999999,Cielito Lindo,4.5,415,los angeles
mexican,,34.04714,-118.21798999999999,Cilantro Lime,4.5,415,los angeles
ramen,,34.050528899999996,-118.2486189,CJ's Cafe,4.5,909,los angeles
mexican,,34.04714,-118.21798999999999,Clayton's Public House,4.5,416,los angeles
mexican,,34.02362,-118.26508000000001,Clementine,4.0,161,los angeles
mexican,,34.02362,-118.26508000000001,Cleo Hollywood,4.0,161,los angeles
korean,False,34.06404114,-118.288063,Cleo Third Street,4.5,464,los angeles
sandwiches,,34.0825531,-118.2731253,Cliff's Edge,4.5,189,los angeles
mediterranean,,34.04507954,-118.2607108,Cocobella Creamery,4.0,1350,los angeles
pizza,,34.083870000000005,-118.35253,COD Restaurant,4.5,231,west hollywood
newamerican,,34.0888,-118.3769,Coffee Attic,4.0,162,west hollywood
newamerican,,34.0888,-118.3769,Coffee For Breakfast,4.0,163,west hollywood
newamerican,,34.04716,-118.24708000000001,Coffee MCO,4.5,587,los angeles
newamerican,,34.04716,-118.24708000000001,Cole's French Dip,4.5,587,los angeles
gastropubs,,34.064332,-118.30854599999999,Colorado Donuts,4.0,2350,west hollywood
italian,,34.108509999999995,-118.26806,Colori Kitchen,4.0,498,glendale
breakfast_brunch,,34.04676,-118.25098999999999,Combo A,4.0,923,los angeles
breakfast_brunch,,34.04676,-118.25098999999999,Comfort Kitchen,4.0,923,los angeles
breakfast_brunch,,34.04676,-118.25098999999999,Comfort LA,4.0,928,los angeles
breakfast_brunch,,34.04676,-118.25098999999999,Commerson,4.0,928,los angeles
newamerican,,34.08371444,-118.35057140000002,Concerto,4.0,5065,west hollywood
delis,,33.98800555,-118.3626715,Coppelia's Bakery & Cafe,4.5,725,inglewood
newamerican,,34.08371444,-118.35057140000002,Coral Fish Poke Shop,4.0,5072,west hollywood
bbq,,34.0821746,-118.34423259999998,Corn Man,4.0,1883,west hollywood
bbq,,34.0821746,-118.34423259999998,Corner Place,4.0,1885,west hollywood
newamerican,,34.05187005,-118.25205359999998,Cosa Buona,4.0,1268,los angeles
vietnamese,,34.04721535,-118.25619579999999,Cousins Maine Lobster - Los Angeles,4.0,1449,los angeles
newamerican,,34.05187005,-118.25205359999998,Cow Cafe,4.0,1269,los angeles
pubs,,34.1015151,-118.32331090000002,Crab House,4.0,854,west hollywood
pubs,,34.1015151,-118.32331090000002,Craft,4.0,855,west hollywood
coffee,,34.071382,-118.34383700000001,Crawford's,4.0,116,west hollywood
coffee,,34.071382,-118.34383700000001,Crepes De Paris,4.0,116,west hollywood
latin,,34.057823,-118.308776,Crispy Crust Hollywood,4.0,790,west hollywood
bbq,,34.03579025,-118.2639037,Crispy School,5.0,31,los angeles
coffee,,34.10154753,-118.3131838,Crossroads,4.5,348,west hollywood
newamerican,,34.059600200000006,-118.41433959999999,Crown Of India,4.0,1665,beverly hills
coffee,,34.10154753,-118.3131838,Crumbs & Whiskers - Kitten & Cat Cafe,4.5,349,west hollywood
japanese,,34.063320000000004,-118.30197,Crustees Eatery,4.0,458,los angeles
italian,,34.08319,-118.33881000000001,Cruzer Pizza 100% Vegan,4.0,2711,west hollywood
mediterranean,False,34.1023799,-118.32715,Crying Tiger,4.0,1703,west hollywood
mexican,,34.06505,-118.29207,Culina,4.0,683,los angeles
restaurants,,34.03396,-118.22965,Curry House,4.5,59,los angeles
restaurants,,34.03396,-118.22965,D's Dubai Sauce,4.5,58,los angeles
thai,,34.07658,-118.3233,Da Pasquale Restaurant,3.5,347,west hollywood
korean,,34.0622771,-118.29751680000001,Daebokjung,4.0,223,los angeles
korean,,34.0622771,-118.29751680000001,DaeBuDo,4.0,223,los angeles
cheesesteaks,,34.095845000000004,-118.287102,Daikokuya Little Tokyo,4.5,1057,glendale
ramen,,34.03957852,-118.4426696,Daikokuya Sawtelle,4.0,3816,culver city
cheesesteaks,,34.095845000000004,-118.287102,DAMA,4.5,1056,glendale
korean,,34.06204,-118.3133,Dan Sung Sa,4.5,37,west hollywood
japanese,,34.04893317,-118.2403841,Dave's Gourmet Korean Food,4.0,1375,los angeles
mexican,,34.05323685,-118.2570291,Dave's Hot Chicken,4.0,1051,los angeles
brazilian,,34.0982846,-118.3466992,Daw Yee Myanmar Corner,3.5,3062,west hollywood
brazilian,,34.0982846,-118.3466992,Dedicated Danny's Bacon Wrapped Hotdogs,3.5,3066,west hollywood
southern,False,34.061516999999995,-118.23971599999999,Delancey,4.5,5638,los angeles
italian,,34.038866999999996,-118.23602,Deli-cious Deli & Catering,4.0,1296,los angeles
korean,,34.06155498,-118.30431750000001,Deli-In,4.0,1183,los angeles
breakfast_brunch,,34.090825,-118.3323209,Delia's Restaurant,4.0,997,west hollywood
asianfusion,,34.0981492,-118.3501071,Della Terra,4.0,1075,west hollywood
newamerican,,34.08847,-118.26875,Delphine,4.0,245,los angeles
newamerican,,34.03046422,-118.38469520000001,Demitasse,3.5,5961,culver city
italian,,34.046930100000004,-118.25660149999999,Denim The Eatery,4.0,16579,los angeles
italian,,34.046930100000004,-118.25660149999999,DeSano Pizza Bakery,4.0,16578,los angeles
thai,,34.09773,-118.335936,Desert Rose,4.0,785,west hollywood
colombian,,34.06373,-118.296869,Design Cafe Dabang,4.0,1106,los angeles
cocktailbars,,34.052601,-118.263447,Diablo,4.0,1145,los angeles
indonesian,,34.059554399999996,-118.4201091,Dialog Cafe,4.0,2451,beverly hills
italian,,34.046930100000004,-118.25660149999999,Diamond Buffet & Grill,4.0,16581,los angeles
coffee,,34.1053749,-118.3188399,Din Tai Fung,3.5,853,west hollywood
lebanese,,34.09108,-118.28308,Dino's Chicken and Burgers,4.5,438,los angeles
italian,,34.03847976,-118.2347514,Dirt Dog,4.0,541,los angeles
italian,,34.03847976,-118.2347514,District,4.0,542,los angeles
vegetarian,,34.0762049,-118.37026750000001,Division 3,4.5,456,west hollywood
asianfusion,,34.0404035,-118.2535117,Dodger Stadium - Stadium Club,5.0,659,los angeles
cocktailbars,,34.044804,-118.25665,Dollar Hits,4.0,409,los angeles
cheesesteaks,,34.095845000000004,-118.287102,Don Felix Restaurant,4.5,1057,glendale
pubs,,34.04476547,-118.2494431,Don Francisco's Coffee Casa Cubana,4.5,1039,los angeles
cocktailbars,,34.044804,-118.25665,Dōnatsu,4.0,410,los angeles
cocktailbars,,34.044804,-118.25665,Dong II Jang Restaurant,4.0,411,los angeles
indpak,,34.083659999999995,-118.34326999999999,Donut Friend,4.0,2532,west hollywood
mexican,,34.04328564,-118.2635612,Doomie's Home Cookin',3.5,880,los angeles
mexican,,34.04328564,-118.2635612,Doshi Fish,3.5,881,los angeles
korean,,34.06315734,-118.30261899999999,DRAGO Centro,4.0,467,los angeles
sandwiches,,34.06341,-118.29378,Drive Thru Pupusas,4.5,440,los angeles
japanese,,34.075134999999996,-118.308649,DTLA RAMEN,4.0,68,west hollywood
japanese,,34.075134999999996,-118.308649,Duidough Cafe & Cookie Lab,4.0,68,west hollywood
caribbean,,34.04815,-118.34751999999999,Dulan's On Crenshaw,4.0,263,west hollywood
caribbean,,34.04815,-118.34751999999999,Dumpling House,4.0,263,west hollywood
italian,,34.0719052,-118.3595032,Dune,3.5,490,west hollywood
korean,,34.056163,-118.309877,Dune Downtown,4.5,415,west hollywood
korean,,34.056163,-118.309877,E.A.K. Ramen,4.5,416,west hollywood
seafood,,34.10186778,-118.31200259999999,Eagle Rock Green Dragon,4.5,461,west hollywood
tradamerican,,34.0511203,-118.2543221,Eagle Rock Italian Bakery & Deli,4.0,1708,los angeles
korean,,34.06158663,-118.30324180000001,Eagle Rock Kitchen,4.5,2041,los angeles
korean,,34.06158663,-118.30324180000001,Earle's On Crenshaw,4.5,2043,los angeles
korean,,34.06158663,-118.30324180000001,Eastside Market Italian Deli,4.5,2045,los angeles
breakfast_brunch,,34.02876,-118.27516999999999,Eat Drink Americano,4.0,2012,los angeles
ethiopian,,34.057097399999996,-118.3641842,Eat This Cafe,4.5,335,west hollywood
ethiopian,,34.057097399999996,-118.3641842,Eataly - Los Angeles,4.5,335,west hollywood
newamerican,,34.050802000000004,-118.253996,Ebaes,3.5,841,los angeles
burgers,,34.075395,-118.32381799999999,ediBOL,4.0,333,west hollywood
burgers,,34.075395,-118.32381799999999,Egg Tuck,4.0,333,west hollywood
burgers,,34.075395,-118.32381799999999,Eggslut,4.0,334,west hollywood
burgers,,34.075395,-118.32381799999999,Eight Korean BBQ,4.0,334,west hollywood
burgers,,34.083729999999996,-118.30949,Eighth Street Soondae,3.5,433,west hollywood
indpak,,34.05099796,-118.2449263,Ekkamai Thai Restaurant,4.0,1714,los angeles
burgers,,34.083729999999996,-118.30949,El Camaron Pelado,3.5,433,west hollywood
burgers,,34.06523903,-118.23721210000001,El Carmen,4.0,732,los angeles
burgers,,34.06523903,-118.23721210000001,El Cartel,4.0,733,los angeles
japanese,False,34.050022999999996,-118.239935,El Caserio,4.5,3536,los angeles
burgers,,34.099915,-118.25892830000001,El Chato Taco Truck,4.0,297,glendale
chinese,,34.06301,-118.2384,El Cholo,4.0,2484,los angeles
burgers,,34.099915,-118.25892830000001,El Cochinito Restaurant,4.0,298,glendale
ramen,,34.062038,-118.34248490000002,El Comal,4.0,108,west hollywood
asianfusion,,34.07397765,-118.25156270000001,El Compadre,4.0,598,los angeles
asianfusion,,34.07397765,-118.25156270000001,El Coyote Mexican Cafe,4.0,599,los angeles
korean,,34.06340679,-118.3038818,El Flamin' Taco,4.5,1293,los angeles
italian,,34.05101747,-118.25788600000001,El Huarache Azteca,4.0,1531,los angeles
mexican,,34.032791100000004,-118.3417282,El Huarachito,4.5,1127,culver city
bbq,,34.06383505,-118.305978,El Paseo Inn,4.5,674,west hollywood
breakfast_brunch,,34.05744023,-118.3451571,El Patroncito Mexican Cuisine,5.0,216,west hollywood
argentine,,34.0574375,-118.29374309999999,El Taco Toro,4.5,430,los angeles
mexican,,34.0906351,-118.307928,El Taurino,4.5,686,west hollywood
tacos,,34.08827,-118.32633,El Zarape,4.0,900,west hollywood
newamerican,False,34.048111,-118.25834499999999,Elbow Room,4.5,353,los angeles
german,,34.07757,-118.34438,Elderberries Threefold Cafe,4.0,831,west hollywood
brazilian,,33.99933153,-118.4183068,Electric Karma,4.0,805,culver city
pizza,,34.102109999999996,-118.29961999999999,Electric Lotus,4.5,747,glendale
cajun,,34.0109188,-118.33665259999998,Electric Owl,4.0,174,inglewood
cajun,,34.0109188,-118.33665259999998,Elf Café,4.0,173,inglewood
vietnamese,False,34.04721535,-118.25619579999999,Elio’s Wood Fire Pizza,4.0,1449,los angeles
vegan,,34.04565336,-118.2324523,EMC Seafood & Raw Bar,4.0,915,los angeles
vegan,,34.08279,-118.32404,Emilia,4.0,2073,west hollywood
vegan,,34.08279,-118.32404,Empanada's Place,4.0,2074,west hollywood
steak,,34.095603000000004,-118.37238,Employees Only,3.5,1841,west hollywood
korean,,34.06308369,-118.2974812,Emporium Thai,4.5,1460,los angeles
coffee,,34.060212,-118.29132800000001,Erin McKenna's Bakery,4.5,1060,los angeles
vegan,,34.08279,-118.32404,Escala,4.0,2075,west hollywood
coffee,,34.11055,-118.28726,Everytable,4.0,848,glendale
coffee,,34.11055,-118.28726,Fabiolus Cucina,4.0,850,glendale
french,,34.072140000000005,-118.34368,Faith & Flower,4.0,257,west hollywood
sushi,,34.049819899999996,-118.25818999999998,Fala Bar,3.5,2082,los angeles
french,,34.072140000000005,-118.34368,Falafel-Arax,4.0,259,west hollywood
seafood,,34.06242492,-118.2976707,Far Bar,4.0,2288,los angeles
breakfast_brunch,,34.021791,-118.39661699999999,Farfalla Trattoria,4.0,1274,culver city
breakfast_brunch,,34.021791,-118.39661699999999,Farmhouse,4.0,1274,culver city
soup,,34.06646855,-118.30938390000001,Fat Dog,5.0,7,west hollywood
soup,,34.06646855,-118.30938390000001,Fat Sal's Deli - Hollywood,4.0,9,west hollywood
salad,,34.083673,-118.341008,Father's Office,4.0,821,west hollywood
mexican,,34.1014551,-118.3314412,Feast,4.0,769,west hollywood
mexican,,34.1014551,-118.3314412,Fei Xiang Gong,4.0,768,west hollywood
mexican,,34.0596284,-118.3451919,Feng Mao Lamb Kebab,4.0,638,west hollywood
mexican,,34.0596284,-118.3451919,Fig & Olive - Melrose Place,4.0,639,west hollywood
tex-mex,,34.099790000000006,-118.29021000000002,Figaro Bistrot,4.5,960,glendale
brazilian,,34.015667799999996,-118.4127939,Figueroa Philly Cheese Steak,4.5,25,culver city
tradamerican,False,34.096039000000005,-118.326357,FIN Asian Tapas - Hollywood,4.5,166,west hollywood
brazilian,,34.015667799999996,-118.4127939,Fire Chicken,4.5,25,culver city
argentine,,34.0839249,-118.36307990000002,Firehouse Restaurant,4.5,964,west hollywood
mexican,,34.08383745,-118.21340900000001,Fisherman's Island LA,5.0,94,los angeles
mexican,,34.08383745,-118.21340900000001,Fisherman's Outlet,5.0,95,los angeles
burgers,,34.095946999999995,-118.371902,Five Leaves LA,4.0,765,west hollywood
mexican,,34.07251,-118.2213,Flavors of Thai,4.0,1196,los angeles
mexican,,34.07251,-118.2213,Fleming's Prime Steakhouse & Wine Bar,4.0,1198,los angeles
armenian,,34.10137,-118.30125,Flore Vegan Cuisine,4.5,660,west hollywood
armenian,,34.10137,-118.30125,Fogo de Chão Brazilian Steakhouse,4.5,661,west hollywood
cocktailbars,,34.05049,-118.24406,Food,4.0,1349,los angeles
bbq,,34.066531299999994,-118.25426609999998,Food Fair By Diego,4.0,1996,los angeles
bars,,34.04493399,-118.2658048,Foodlab,3.5,2593,los angeles
cafes,,34.0838349,-118.36928449999999,Forage,4.0,324,west hollywood
cafes,,34.0838349,-118.36928449999999,Fortune House Chinese Cuisine,4.0,324,west hollywood
cafes,,34.0838349,-118.36928449999999,Founders Ale House,4.0,325,west hollywood
seafoodmarkets,,34.04083,-118.24018000000001,Four Cafe,4.0,1099,los angeles
cafes,,34.0838349,-118.36928449999999,Frankie's,4.0,325,west hollywood
mexican,,34.0466,-118.21837,Franklin & Company Tavern,4.0,492,los angeles
mexican,,34.0466,-118.21837,Fratelli Cafe,4.0,493,los angeles
sandwiches,,34.07225218,-118.36262930000001,Fred 62,4.5,1098,west hollywood
mexican,,34.04262833,-118.25329479999999,Freedman's,4.5,619,los angeles
bars,,34.044846,-118.24956399999999,Fresh Corn Grill,3.5,2184,los angeles
mexican,,34.04262833,-118.25329479999999,Friends & Family,4.5,620,los angeles
tradamerican,,34.04641173,-118.2628458,Frog Frozen Yogurt,3.5,2929,los angeles
japanese,,33.98642,-118.27356999999999,Frogtowns Gourmet Tacos,4.5,118,huntington park
mexican,,33.9927987,-118.4227098,Froma on Melrose,4.0,1204,culver city
mexican,,33.9927987,-118.4227098,FryMadness,4.0,1205,culver city
mexican,,34.15258,-118.36437,Fukurou Ramen,4.0,758,west hollywood
mexican,,34.15258,-118.36437,Full House Seafood Restaurant,4.0,759,west hollywood
tradamerican,,34.06333,-118.30072,Full Moon House 福临门,4.0,1488,los angeles
chinese,False,34.06301,-118.2384,Funculo,4.0,2485,los angeles
ethiopian,,34.056709999999995,-118.36483,Furaibo Restaurant,4.5,728,west hollywood
thai,,34.1018849,-118.30513,Gaam Restaurant and Lounge,4.0,1696,west hollywood
steak,,34.068843,-118.398751,Gaby's Mediterranean Restaurant Cafe,4.0,4632,beverly hills
tradamerican,,34.06333,-118.30072,Gam Ja Gol,4.0,1487,los angeles
catering,,34.0056987,-118.3342202,GamBoJok,5.0,25,inglewood
italian,False,34.050039,-118.248552,Genghis Cohen,4.0,2767,los angeles
seafood,,34.10186778,-118.31200259999999,Genki Grill,4.5,461,west hollywood
seafood,,34.0762031,-118.3779835,Genwa Korean BBQ,4.0,151,beverly hills
mexican,False,34.052409999999995,-118.30071000000001,Get Bbul,4.0,2123,los angeles
mediterranean,,34.0249037,-118.28459609999999,Ghost Pizza Kitchen,4.0,176,los angeles
korean,,34.07403097,-118.30918799999999,Gigi's Bakery & Café,4.0,1500,west hollywood
newamerican,,34.0728,-118.36878,Gingergrass,3.5,1715,west hollywood
mediterranean,,34.0249037,-118.28459609999999,Ginza Ramen,4.0,177,los angeles
mediterranean,,34.0249037,-118.28459609999999,Gizmo's Cereal Bar,4.0,177,los angeles
mexican,,34.046530600000004,-118.25067990000001,Gloria's Cafe,4.5,1706,los angeles
seafood,,34.0833651,-118.3262166,Gloria's Cuisine LA,4.0,2262,west hollywood
juicebars,,34.063857399999996,-118.30956680000001,Glowing Juices/ Vegan Market,4.0,674,west hollywood
latin,,34.0359554,-118.2920263,Go Pocha,4.0,424,los angeles
latin,,34.10507,-118.27285479999999,Gogobop Korean Rice Bar,4.5,54,glendale
korean,,34.06309,-118.29753999999998,Gokoku Vegetarian Ramen Shop,4.5,114,los angeles
korean,,34.06309,-118.29753999999998,Gol Tong Chicken,4.5,116,los angeles
korean,,34.06452321,-118.30916450000001,Golden Dragon Restaurant,4.5,163,west hollywood
chickenshop,,33.95967,-118.30991000000002,Golden Lake Eatery Cambodian Restaurant,4.5,51,westmont
chickenshop,,33.95967,-118.30991000000002,Golden Mongolian Restaurant,4.5,52,westmont
soulfood,,34.05082,-118.36183,Golden State,4.0,95,west hollywood
korean,,34.0669316,-118.2921742,Good Burger,4.5,989,los angeles
italian,,34.08319,-118.33908000000001,Good Goose Cafe,4.0,552,west hollywood
italian,,34.08319,-118.33908000000001,Good Greek Grill,4.0,552,west hollywood
italian,,34.08319,-118.33908000000001,Gracias Madre,4.0,553,west hollywood
italian,,34.08319,-118.33908000000001,Gracie's Pizza,4.0,553,west hollywood
asianfusion,,34.0981492,-118.3501071,Grand Central Market,4.0,1074,west hollywood
asianfusion,,34.0981492,-118.3501071,Granny's Kitchen,4.0,1075,west hollywood
mexican,,34.00058954,-118.27385220000001,GRANVILLE,4.5,67,huntington park
mexican,,34.01744,-118.2783,Green Apple Cafe,4.5,1188,los angeles
italian,,34.03447,-118.28341,Green Leaves Vegan,4.0,1355,los angeles
bbq,,34.0421867,-118.30889509999999,Green Table Cafe,4.0,62,los angeles
coffee,,34.084365999999996,-118.28663600000002,Grilled Fraiche,4.0,1948,los angeles
pizza,,34.08346062,-118.29517539999999,Groundwork Coffee Co.,4.5,497,los angeles
bbq,,34.0421867,-118.30889509999999,Grub,4.0,62,los angeles
japanese,,34.0493955,-118.2397527,Guelaguetza Restaurante,4.0,477,los angeles
japanese,,34.0493955,-118.2397527,Guerrilla Tacos,4.0,478,los angeles
chinese,,34.066159999999996,-118.23586,Guisados,4.0,324,los angeles
chinese,,34.066159999999996,-118.23586,Guisados DTLA,4.0,324,los angeles
korean,,34.052144,-118.310428,Gus's Drive In,4.0,1613,west hollywood
hotdog,,34.057693,-118.2936795,Gus's World Famous Fried Chicken,4.5,57,los angeles
coffee,,34.129740000000005,-118.21645,Gwang Yang BBQ,4.5,478,glendale
korean,,34.06309902,-118.2971334,Gwen Butcher Shop,4.0,728,los angeles
korean,,34.06309902,-118.2971334,Gyu-Kaku Japanese BBQ,4.0,729,los angeles
foodstands,,34.04587816,-118.34472790000001,H Cafe,5.0,31,west hollywood
mexican,,34.057241299999994,-118.2383631,H&H Brazilian Steakhouse,4.0,793,los angeles
mexican,,34.03967,-118.25471999999999,Hae Ha Heng Thai Bistro,4.5,362,los angeles
mexican,,34.03967,-118.25471999999999,Hae Jang Chon Korean BBQ Restaurant,4.5,362,los angeles
mexican,,34.03967,-118.25471999999999,Haemaru,4.5,363,los angeles
mexican,,34.03967,-118.25471999999999,Hak San - LA,4.5,363,los angeles
cocktailbars,,34.04676,-118.25098999999999,Hakata Ikkousha,4.0,259,los angeles
cocktailbars,,34.04676,-118.25098999999999,Halmoni Grandmas Dukbokki,4.0,259,los angeles
bakeries,,34.0603059,-118.4208591,Ham Ji Park,4.0,1013,beverly hills
mediterranean,,34.1023799,-118.32715,Hama Sushi,4.0,1702,west hollywood
breakfast_brunch,,34.09019089,-118.2777252,Han Bat Sul Lung Tang,4.0,1628,los angeles
seafood,,34.0728,-118.37363,Han Mi Jung,4.5,663,west hollywood
coffee,,34.083871,-118.3501442,Hana Ichimonme,5.0,17,west hollywood
venezuelan,,34.171879,-118.38173700000002,Hana Kitchen,4.5,358,burbank
cafes,,34.05218,-118.28737,Hangari Bajirak Kalguksu,5.0,70,los angeles
cafes,,34.05218,-118.28737,Happy Taco,5.0,76,los angeles
cafes,,34.05218,-118.28737,Harold & Belle's,5.0,79,los angeles
bars,,34.044846,-118.24956399999999,Hash,3.5,2184,los angeles
bars,,34.044846,-118.24956399999999,Hasiba,3.5,2184,los angeles
italian,,34.045168,-118.25652600000001,HaSunSaeng - MasterHA,4.0,1600,los angeles
italian,,34.045168,-118.25652600000001,HATCH Yakitori + Bar,4.0,1600,los angeles
italian,,34.045168,-118.25652600000001,Hatchet Hall,4.0,1601,los angeles
italian,,34.045168,-118.25652600000001,Hayato,4.0,1601,los angeles
chinese,,34.07817,-118.25676000000001,Healthy Zone Jook Hyang,4.5,227,los angeles
chinese,,34.07817,-118.25676000000001,Here's Looking At You,4.5,227,los angeles
japanese,,34.04738712,-118.2571949,Hide Sushi Japanese Restaurant,4.0,2348,los angeles
farmersmarket,,34.06143,-118.35405,HiFi Kitchen,4.5,35,west hollywood
comfortfood,,34.0377826,-118.24287209999999,High Tide,4.0,841,los angeles
comfortfood,,34.0377826,-118.24287209999999,HiHo Cheeseburger,4.0,841,los angeles
sushi,False,34.08319167,-118.27324499999999,Hill Street Bar & Restaurant,4.5,634,los angeles
newamerican,,34.06060001,-118.3445095,Himalayan House,4.0,415,west hollywood
breakfast_brunch,,34.06301,-118.30622,Hinoki & The Bird,4.0,1191,west hollywood
cuban,,34.02114,-118.4036,HMS Bounty,4.0,2186,culver city
breakfast_brunch,,34.06301,-118.30622,Hock+Hoof,4.0,1192,west hollywood
sushi,,34.0637422,-118.36714029999999,HoHo Chicken,4.5,185,west hollywood
korean,,34.06158663,-118.30324180000001,Hokkaido Ramen Santouka,4.5,2045,los angeles
foodstands,,34.07257747,-118.21469450000001,Holbox,4.5,897,los angeles
foodstands,,34.07257747,-118.21469450000001,Hollywood Burger,4.5,899,los angeles
newamerican,,34.07247231,-118.3593774,Hollywood Pies,4.0,2143,west hollywood
french,False,34.06415,-118.34366999999999,Hollywood Thai,4.0,5144,west hollywood
korean,,34.0560571,-118.2897392,Home Restaurant - Los Feliz,4.0,909,los angeles
pizza,,34.07727,-118.26388999999999,Homegirl Cafe,4.0,280,los angeles
pizza,,34.07727,-118.26388999999999,HomeState,4.0,280,los angeles
cafes,,34.03871165,-118.26425290000002,Honda Ya Izakaya,4.5,129,los angeles
korean,,34.05508861,-118.2919263,Honey Bee's House of Breakfast,4.0,106,los angeles
korean,,34.05508861,-118.2919263,Honey Hi,4.0,108,los angeles
newamerican,,34.059600200000006,-118.41433959999999,Honey Night,4.0,1664,beverly hills
brazilian,,34.04191749,-118.2551352,Honey Pig,4.0,1382,los angeles
newamerican,,34.059600200000006,-118.41433959999999,Honeybee Burger,4.0,1665,beverly hills
southern,,34.06962,-118.27756000000001,Honeybird,4.5,298,los angeles
diners,,33.97795,-118.37064,Honeymee,4.0,1171,inglewood
tradamerican,,34.06333,-118.30072,Honeymee Wilshire,4.0,1487,los angeles
southern,,34.06962,-118.27756000000001,Hong Kong Ban Jum 0410 / Paik's Noodle,4.5,298,los angeles
juicebars,,34.143929,-118.398974,Horse Thief BBQ,4.5,367,west hollywood
creperies,,34.05718003,-118.2529243,Hot Motha Clucker,4.5,136,los angeles
breakfast_brunch,,34.06413661,-118.28388629999999,Hot Wings Cafe,5.0,80,los angeles
breakfast_brunch,,34.06413661,-118.28388629999999,House of Curry,5.0,83,los angeles
southern,,34.07364241,-118.37677450000001,House Of Pies,4.5,938,beverly hills
breakfast_brunch,,34.06413661,-118.28388629999999,Howlin' Ray's,5.0,86,los angeles
vegan,,34.083420000000004,-118.37011000000001,Hoy-Ka Thai Restaurant,4.0,1941,west hollywood
vegan,,34.083420000000004,-118.37011000000001,Hoy's Wok Chinese Restaurant,4.0,1942,west hollywood
italian,,34.06505004,-118.2464933,Humble Potato,4.5,993,los angeles
vegan,,34.083420000000004,-118.37011000000001,Hummus Republic,4.0,1942,west hollywood
vegan,,34.083420000000004,-118.37011000000001,Hungry Crowd,4.0,1945,west hollywood
mexican,,34.1010002,-118.2872851,Hurry Curry of Tokyo,4.0,2121,glendale
italian,False,34.103041999999995,-118.29185700000001,Hwal Uh Kwang Jang,4.0,945,glendale
vegan,,34.083420000000004,-118.37011000000001,Hyperion Public,4.0,1945,west hollywood
coffee,,34.08358629999999,-118.3623821,Hyperslow,4.5,426,west hollywood
indpak,,34.0621767,-118.34814490000001,I Love Sweetea,4.0,1257,west hollywood
coffee,,34.08358629999999,-118.3623821,I Panini di Ambra,4.5,427,west hollywood
coffee,,34.08358629999999,-118.3623821,Idle Hour,4.5,428,west hollywood
breakfast_brunch,,34.072893,-118.37178999999999,Ignatius Cafe,4.0,2250,west hollywood
desserts,,33.9886408,-118.35333519999999,Iki Ramen,5.0,63,inglewood
desserts,,33.9886408,-118.35333519999999,IL Bambino Restaurant,5.0,63,inglewood
seafood,,34.05013744,-118.24242220000001,Il Capriccio on Vermont,4.0,1196,los angeles
breakfast_brunch,,34.0633975,-118.3759994,Il Cielo,4.5,726,beverly hills
mediterranean,,34.1012388,-118.331478,Il Giardino,4.5,224,west hollywood
korean,False,34.064009000000006,-118.3007013,Il Pastaio,4.5,1953,los angeles
taiwanese,False,34.09059638,-118.27717209999999,Ima,4.5,2137,los angeles
korean,,34.05279,-118.27807,Imperial Western Beer Company,4.5,35,los angeles
korean,,34.0614471,-118.311821,In-N-Out Burger,4.5,180,west hollywood
southern,,34.102039000000005,-118.299858,India's Grill,4.5,727,glendale
ramen,,34.05008091,-118.2401805,India's Restaurant,4.0,8318,los angeles
ramen,,34.05008091,-118.2401805,India's Tandoori,4.0,8317,los angeles
southern,,34.04810715,-118.3262787,India's Tandoori Hollywood,4.0,1362,west hollywood
ramen,,34.05008091,-118.2401805,Indimex Eats,4.0,8325,los angeles
latin,,34.03528194,-118.2530662,Industriel,4.5,341,los angeles
latin,,34.03528194,-118.2530662,Inko Nito,4.5,340,los angeles
korean,,34.063852000000004,-118.29460900000001,Inti Restaurant,4.0,814,los angeles
bars,False,34.05011891,-118.24146110000001,Ippudo,4.0,898,los angeles
korean,,34.063852000000004,-118.29460900000001,Isaan Station Thai Street Food,4.0,814,los angeles
chickenshop,,34.0880681,-118.30896200000001,It's Pho hollywood,4.5,2513,west hollywood
italian,False,34.06372,-118.36446000000001,Itacho Ramen & Sushi,5.0,11,west hollywood
colombian,False,34.06373,-118.296869,Itaewon Izakaya,4.0,1107,los angeles
chickenshop,,34.16468,-118.37409,Ivanhoe Restaurant & Bar,5.0,5,burbank
french,False,34.1053549,-118.32469850000001,Ivory on Sunset,4.5,439,west hollywood
chickenshop,,34.0880681,-118.30896200000001,ixlb DimSum Eats,4.5,2513,west hollywood
chickenshop,,34.0880681,-118.30896200000001,Izakaya Fu-ga,4.5,2523,west hollywood
chickenshop,,34.0880681,-118.30896200000001,Izakaya Gazen,4.5,2523,west hollywood
burmese,,34.08256911,-118.2722527,Izakaya Mi Young,4.5,316,los angeles
streetvendors,,34.05545044,-118.2472382,Izakaya Tora,5.0,59,los angeles
coffee,,34.08321,-118.3464,Jack N Jill's Too,4.5,1051,west hollywood
seafood,,34.10142181,-118.32598590000002,Jack's Family Kitchen,3.5,834,west hollywood
comfortfood,,34.03545834,-118.25856529999999,Jacks N Joe,5.0,81,los angeles
cafes,,34.06273,-118.30946000000002,Jae Bu Do,4.0,630,west hollywood
comfortfood,,34.03545834,-118.25856529999999,Jaffa,5.0,82,los angeles
pizza,,34.09100997,-118.2977629,Jaffa Palms,4.5,1101,west hollywood
ramen,False,34.08316,-118.32627,Jalapeño Pete's,5.0,1,west hollywood
tradamerican,,34.0556347,-118.27464779999998,Jane Q,3.5,229,los angeles
taiwanese,,34.05816758,-118.41731029999998,Jang Choong Dong JokBal,4.0,1121,beverly hills
shanghainese,,34.1434651,-118.2560737,Jang Ga Ne,4.0,3428,glendale
vietnamese,,34.053337799999994,-118.3089351,Jar,4.5,603,west hollywood
taiwanese,,34.05816758,-118.41731029999998,Jaragua,4.0,1123,beverly hills
italian,,34.0786401,-118.3613451,Javista Organic Coffee Bar,4.0,1548,west hollywood
ramen,,34.06413665,-118.30946090000002,Jay's Bar,4.5,518,west hollywood
coffee,,34.11055,-118.28726,Jeff's Gourmet Sausage Factory,4.0,852,glendale
taiwanese,,34.05816758,-118.41731029999998,Jeon Ju Restaurant,4.0,1128,beverly hills
shanghainese,,34.1434651,-118.2560737,Jeong Yuk Jeom,4.0,3431,glendale
taiwanese,,34.05816758,-118.41731029999998,Jeonju Hyundaiok,4.0,1130,beverly hills
burgers,,34.047441,-118.293926,Jesse Boy,4.0,1959,los angeles
hotdog,,34.02829238,-118.2752082,Jewel,4.5,1859,los angeles
hotdog,,34.02829238,-118.2752082,Jinsol Gukbap,4.5,1860,los angeles
hotdog,,34.02829238,-118.2752082,JINYA Ramen Bar,4.5,1862,los angeles
food_court,,34.05062855,-118.24863529999999,JiST Cafe,4.0,2486,los angeles
cocktailbars,,34.04799129,-118.2584669,Jitlada,4.0,492,los angeles
ramen,,34.04690964,-118.2384162,JJ's Sandwich Shop,4.0,1212,los angeles
southern,False,34.102039000000005,-118.299858,JJAN,4.5,726,glendale
cocktailbars,,34.04799129,-118.2584669,JJUKKU JJUKKU BBQ,4.0,493,los angeles
tradamerican,,34.073855,-118.23995900000001,Joan's on Third,4.0,175,los angeles
cocktailbars,,34.04285034,-118.25775959999999,Joe Coffee,4.0,1050,los angeles
tradamerican,,34.073855,-118.23995900000001,Joe's Falafel,4.0,175,los angeles
streetvendors,,34.07145,-118.27266999999999,JOEY DTLA,4.0,252,los angeles
streetvendors,,34.07145,-118.27266999999999,Jokbal 1030,4.0,252,los angeles
donuts,,34.048359999999995,-118.24071,Jon & Vinny's Fairfax,4.5,227,los angeles
korean,False,34.06308369,-118.2974812,Jones,4.5,1461,los angeles
latin,,34.01717897,-118.27835060000001,Joom Bangkok Cafe,5.0,274,los angeles
korean,,34.05792,-118.30503,Jopok Topokki,4.0,592,los angeles
japanese,,34.0443222,-118.23823390000001,Joy,4.0,1735,los angeles
tradamerican,,34.093984000000006,-118.32763899999999,Jun Won Restaurant,4.0,1677,west hollywood
tradamerican,,34.093984000000006,-118.32763899999999,Kaban Persian Restaurant,4.0,1677,west hollywood
sushi,,34.05272458,-118.31852520000001,Kabob By Faraj Restaurant & Kosher Meat Market,5.0,33,west hollywood
italian,,34.05101747,-118.25788600000001,KaGaYa,4.0,1531,los angeles
salvadoran,,34.12407454,-118.22057579999999,Kai Ramen,5.0,116,glendale
ramen,,34.04098,-118.25696,Kai Ramen At Joseph's Cafe,4.0,535,los angeles
cafes,,34.09982736,-118.3282186,Kali Restaurant,4.5,158,west hollywood
cafes,,34.09982736,-118.3282186,Kang Ho-dong Baekjeong,4.5,159,west hollywood
soulfood,,33.9985785,-118.3307743,Kanpai Japanese Sushi Bar & Grill,4.0,566,inglewood
soulfood,,33.9985785,-118.3307743,Kanpai Japanese Sushi Bar & Grill 2,4.0,567,inglewood
korean,,34.0693,-118.29253,Karl Strauss Brewing Company,4.5,502,los angeles
cocktailbars,False,34.052601,-118.263447,KASHIRA SUSHI,4.0,1145,los angeles
korean,,34.0693,-118.29253,Kasih,4.5,503,los angeles
falafel,,34.11696495,-118.26209309999999,Kass Wine Bar & Restaurant,4.5,667,glendale
falafel,,34.11696495,-118.26209309999999,Katsu by Momota,4.5,668,glendale
korean,,34.063757,-118.29583799999999,Katsuya Hollywood,4.0,1466,los angeles
mexican,,34.04262833,-118.25329479999999,Katsuya L.A. Live,4.5,620,los angeles
falafel,,34.040957500000005,-118.257195,KazuNori  | The Original Hand Roll Bar,4.5,130,los angeles
ramen,,34.0837585,-118.35254599999999,KazuNori: The Original Hand Roll Bar,4.0,336,west hollywood
sushi,,34.04853129999999,-118.2402898,KC's Crepes Cafe,4.0,1503,los angeles
movietheaters,False,34.04809,-118.2589433,Kensho Hollywood,4.5,117,los angeles
ramen,,34.0837585,-118.35254599999999,Kettle Black,4.0,338,west hollywood
ramen,,34.0837585,-118.35254599999999,Kiku Sushi,4.0,338,west hollywood
coffee,,34.048402100000004,-118.2580705,Killer Noodle Tsujita,4.5,425,los angeles
hotdog,,34.01562331,-118.33475590000002,King Of New York Pizzeria Pub,4.5,342,inglewood
filipino,,34.14177,-118.22111000000001,King Taco,4.5,170,glendale
sandwiches,,34.09454489,-118.33817490000001,Kings Road Cafe,4.0,1998,west hollywood
filipino,,34.14177,-118.22111000000001,Kinjiro,4.5,170,glendale
hotdog,,34.01562331,-118.33475590000002,Kismet,4.5,341,inglewood
hotdog,,34.01562331,-118.33475590000002,Kitchen Sooda,4.5,342,inglewood
italian,,34.06505004,-118.2464933,Klat,4.5,992,los angeles
italian,,34.06505004,-118.2464933,Kobawoo House,4.5,993,los angeles
breakfast_brunch,,34.090825,-118.3323209,KOBUNGA,4.0,996,west hollywood
breakfast_brunch,,34.04067,-118.2500946,Kogi BBQ Truck - Azul,4.0,2212,los angeles
breakfast_brunch,,34.090825,-118.3323209,Kogi BBQ Truck - Verde,4.0,997,west hollywood
gourmet,,34.059609,-118.41943700000002,Kogi Taqueria,3.5,1933,beverly hills
gourmet,,34.059609,-118.41943700000002,Koja Kitchen DTLA,3.5,1934,beverly hills
tapasmallplates,,34.03445363,-118.28366940000001,Komasa Sushi,4.0,706,los angeles
bbq,False,34.066531299999994,-118.25426609999998,Kopan Ramen - Los Angeles,4.0,1996,los angeles
newamerican,,34.0448755,-118.2326144,Korean Kitchen Hibachi Barbeque,4.5,551,los angeles
newamerican,,34.0448755,-118.2326144,Koreatown Galleria,4.5,552,los angeles
italian,False,34.08335868,-118.3247249,Koreatown Pizza Company,4.0,1524,west hollywood
newamerican,,34.04939,-118.256506,Kotoya Ramen,4.0,1755,los angeles
newamerican,,34.0448755,-118.2326144,Kouraku Restaurant,4.5,553,los angeles
chinese,,34.0761949,-118.3751356,Krab Queenz,4.0,289,west hollywood
breakfast_brunch,,34.062127000000004,-118.311328,Ktown Pho,4.0,193,west hollywood
breakfast_brunch,,34.062127000000004,-118.311328,Kues Restaurant,4.0,194,west hollywood
breakfast_brunch,,34.062127000000004,-118.311328,Kura Revolving Sushi Bar,4.0,196,west hollywood
french,,34.051909,-118.3843212,KyoChon,4.5,1241,beverly hills
breakfast_brunch,,34.050528899999996,-118.2486189,L & E Oyster Bar,4.0,5585,los angeles
breakfast_brunch,,34.07381349,-118.3774918,L.A. Birria,3.5,289,beverly hills
breakfast_brunch,,34.050528899999996,-118.2486189,L'Antica Pizzeria Da Michele,4.0,5585,los angeles
falafel,,34.11696495,-118.26209309999999,La Abeja Restaurant,4.5,668,glendale
breakfast_brunch,,34.050528899999996,-118.2486189,La Barca Restaurant,4.0,5584,los angeles
lounges,False,34.048970000000004,-118.2514,La Boucherie,4.0,7283,los angeles
newamerican,,33.959441999999996,-118.393598,La Brea Bakery Café,4.0,1367,inglewood
breakfast_brunch,,34.050528899999996,-118.2486189,La Brea Ramen Bar,4.0,5584,los angeles
korean,,34.05599268,-118.3099368,LA Breakfast Club,4.5,1627,west hollywood
korean,,34.0578449,-118.2843912,LA Brisket,4.5,214,los angeles
hotdog,,34.08403,-118.34438999999999,LA Café,3.5,7026,west hollywood
mexican,,34.07869,-118.21471000000001,La Cevicheria,4.0,233,los angeles
mexican,,34.07869,-118.21471000000001,LA Chankla,4.0,233,los angeles
mexican,,34.0720873,-118.367282,La Chuperia,4.0,948,west hollywood
mexican,,34.06251215,-118.3488146,La Esquina,4.0,482,west hollywood
korean,False,34.0639032,-118.3061281,La Fonda,4.0,4775,west hollywood
mexican,,34.0571251,-118.346074,La Fonda Antioquena,4.5,1262,west hollywood
cuban,,34.08875714,-118.27693049999999,La Golondrina Mexican Cafe,4.0,703,los angeles
cuban,,34.08875714,-118.27693049999999,La Michoacana Restaurant,4.0,704,los angeles
mexican,,34.09105,-118.30819,La Noche Buena Restaurant,4.5,44,west hollywood
mexican,,34.09769,-118.35205,LA Number 1 Chueotang,3.5,1586,west hollywood
mexican,,34.09769,-118.35205,La Numero Uno,3.5,1587,west hollywood
mexican,,34.07587433,-118.3492203,LA Paella,3.5,1665,west hollywood
mexican,,34.07587433,-118.3492203,La Pergoletta,3.5,1666,west hollywood
mexican,,34.05748236,-118.23774009999998,La Pergoletta on Sunset,4.0,1128,los angeles
mexican,,34.05748236,-118.23774009999998,La Picca,4.0,1129,los angeles
thai,False,34.09784367,-118.31833770000001,La Poubelle Bistro,4.5,1713,west hollywood
mexican,,34.09544,-118.30256000000001,LA Prime,4.5,549,west hollywood
mexican,,34.09544,-118.30256000000001,La Pupusa Urban Eatery,4.5,549,west hollywood
mexican,,34.09544,-118.30256000000001,LA Rose Cafe,4.5,550,west hollywood
cafes,,34.10703737,-118.20345470000001,La Taquiza,4.5,509,south pasadena
newamerican,,34.08755,-118.33333,LA Vegan,4.0,1870,west hollywood
mexican,,34.09544,-118.30256000000001,Lala's Argentine Grill,4.5,550,west hollywood
indpak,,34.072291,-118.368852,Lalibela Ethiopian Restaurant,4.0,793,west hollywood
indpak,,34.072291,-118.368852,Langer's,4.0,794,west hollywood
newamerican,,34.0976461,-118.3529173,Lao Tao,4.0,323,west hollywood
vegetarian,,34.077812,-118.26461599999999,Larchmont Bungalow Cafe,4.5,738,los angeles
vegetarian,,34.077812,-118.26461599999999,Larchmont Village Wine Spirits & Cheese,4.5,739,los angeles
vegetarian,,34.077812,-118.26461599999999,LASA,4.5,739,los angeles
seafood,,34.063452000000005,-118.29904599999999,Laveta,4.0,3156,los angeles
delis,,34.0476,-118.31723400000001,Lawry's The Prime Rib - Beverly Hills,4.5,1336,west hollywood
newamerican,False,34.083690000000004,-118.33988000000001,Le Comptoir,4.5,72,west hollywood
seafood,,34.063452000000005,-118.29904599999999,Le Grand,4.0,3155,los angeles
seafood,,34.063452000000005,-118.29904599999999,Le Petit Greek,4.0,3155,los angeles
italian,,34.07117,-118.37702,Le Petit Marché,5.0,48,beverly hills
italian,,34.07117,-118.37702,Le Petit Paris,5.0,49,beverly hills
bubbletea,,34.07295286,-118.3755598,Lemon Poppy Kitchen,4.5,916,west hollywood
italian,,34.07117,-118.37702,Lemonade,5.0,50,beverly hills
argentine,,34.011070399999994,-118.4196397,Leo's Tacos Truck,4.5,733,culver city
argentine,,34.011070399999994,-118.4196397,Library Bar,4.5,732,culver city
newamerican,False,34.077585,-118.259599,Lincoln Kitchen & Tap,4.0,4006,los angeles
colombian,,34.06373,-118.296869,Little Bear,4.0,1106,los angeles
salad,,34.03503535,-118.2835311,Little Dom's,4.5,273,los angeles
italian,,34.0978651,-118.3256499,Little Fatty,4.0,838,west hollywood
italian,,34.0978651,-118.3256499,Little Jewel of New Orleans,4.0,839,west hollywood
newamerican,,34.046195000000004,-118.261698,Little Kingston Jamaican Restaurant,4.0,2393,los angeles
newamerican,,34.046195000000004,-118.261698,Little Next Door,4.0,2395,los angeles
falafel,,34.09115,-118.30078,Little Pine,4.5,303,west hollywood
italian,,34.1074686,-118.28727509999999,Little Sister,4.0,628,glendale
italian,,34.1074686,-118.28727509999999,Little Tokyo Taiyaki,4.0,628,glendale
italian,,34.10186222,-118.3124936,Lobsta Truck,4.5,357,west hollywood
newamerican,,34.073519299999994,-118.3767501,Lobster & Beer,4.0,463,beverly hills
newamerican,,34.073519299999994,-118.3767501,Local,4.0,464,beverly hills
korean,,34.06367623,-118.2954743,Locali,4.5,619,los angeles
newamerican,,34.08612798,-118.3617271,Locanda Veneta,4.0,562,west hollywood
pizza,,34.0739747,-118.3238054,Lock & Key,4.0,1427,west hollywood
sandwiches,,34.09454489,-118.33817490000001,Lodge Bread,4.0,1994,west hollywood
sandwiches,,34.09454489,-118.33817490000001,LONO Hollywood,4.0,1997,west hollywood
sandwiches,,34.09454489,-118.33817490000001,Lory's Restaurant,4.0,1998,west hollywood
newamerican,,34.03046422,-118.38469520000001,Los Balcones,3.5,5961,culver city
newamerican,,34.1014294,-118.32633259999999,Los Balcones - Studio City,4.0,472,west hollywood
newamerican,,34.1014294,-118.32633259999999,Lou’s Hot Chicken,4.0,472,west hollywood
kebab,,34.067370000000004,-118.30892,Louders,5.0,7,west hollywood
italian,False,34.046930100000004,-118.25660149999999,Louise's Trattoria,4.0,16584,los angeles
kebab,,34.067370000000004,-118.30892,Loupiotte Kitchen,5.0,8,west hollywood
chinese,,34.053655,-118.319659,Love Baked Wings,4.5,540,west hollywood
dimsum,False,34.07577,-118.36981999999999,Lowell Farms - A Cannabis Cafe,4.0,2784,west hollywood
korean,,34.06662622,-118.3089679,Lowell Farms: A Cannabis Cafe,4.0,445,west hollywood
mediterranean,,34.0834751,-118.37617409999999,Lucy Ethiopian Restaurant,4.0,2427,west hollywood
mediterranean,,34.0834751,-118.37617409999999,Lulu's Cafe,4.0,2428,west hollywood
mediterranean,,34.0834751,-118.37617409999999,Luv2Eat Thai Bistro,4.0,2428,west hollywood
korean,False,34.06232132,-118.340899,Lux Restaurant,4.5,2775,west hollywood
cheesesteaks,,34.014196000000005,-118.282417,M Grill,4.5,1074,los angeles
cheesesteaks,,34.014196000000005,-118.282417,M'Dear's Bakery & Bistro,4.5,1075,los angeles
chickenshop,,34.05753083,-118.29523219999999,Ma Dang Gook Soo,4.5,60,los angeles
newamerican,,34.03414,-118.22965,Ma'am Sir,4.0,14,los angeles
seafood,,34.003815,-118.3325408,Maccheroni Republic,4.5,56,inglewood
pizza,,34.086529999999996,-118.37613999999999,Madame Monsieur,4.0,1099,west hollywood
seafood,,34.003815,-118.3325408,Madera Kitchen,4.5,57,inglewood
seafoodmarkets,,34.04083,-118.24018000000001,Madre Oaxacan Restaurant and Mezcaleria,4.0,1099,los angeles
seafoodmarkets,,34.04083,-118.24018000000001,Mae Ting's Coconut Cakes,4.0,1099,los angeles
newamerican,,34.095620000000004,-118.29534,Magal BBQ,4.0,106,glendale
newamerican,,34.095620000000004,-118.29534,Maggiano's Little Italy,4.0,108,glendale
japanese,,34.0499,-118.2397,Maharaja Cuisine Of India,4.0,1384,los angeles
newamerican,,34.095620000000004,-118.29534,Majangdong,4.0,109,glendale
thai,,34.0450459,-118.2769246,Majordōmo,4.0,608,los angeles
italian,False,34.07353573,-118.3595324,Mama Lion,4.0,1797,west hollywood
steak,,34.04469633,-118.2653645,Mama Shelter Rooftop Bar,4.0,1529,los angeles
argentine,,34.011070399999994,-118.4196397,Mama's International Tamales,4.5,732,culver city
steak,,34.04469633,-118.2653645,Manpuku Japanese Yakiniku Dining,4.0,1530,los angeles
newamerican,,34.0833651,-118.3242882,Manpuku Tokyo BBQ,4.5,493,west hollywood
vegan,,34.09121041,-118.27942720000001,Manuela,4.0,1159,los angeles
steak,,34.04766494,-118.26121880000001,Mapo Galbi,3.5,1050,los angeles
newamerican,,34.0914091,-118.2792034,Mari Kimbap Shop,4.0,784,los angeles
french,,34.07208,-118.36748999999999,Marie's Coffee & Deli,4.0,2033,west hollywood
chinese,,34.058279999999996,-118.36251999999999,Marino Restaurant,4.0,236,west hollywood
chinese,,34.058279999999996,-118.36251999999999,Mario's Peruvian & Seafood,4.0,236,west hollywood
newamerican,,34.055025799999996,-118.3833637,Mariscos 4 Vientos,4.5,212,beverly hills
italian,,34.08323,-118.34723999999999,Mariscos Jalisco,4.0,412,west hollywood
italian,,34.08323,-118.34723999999999,Mariscos La Corita,4.0,412,west hollywood
tradamerican,,34.10538377,-118.31875749999999,Market Provisions,3.5,476,west hollywood
coffee,,34.08321,-118.3464,Marmalade Cafe,4.5,1053,west hollywood
coffee,,34.08321,-118.3464,Marouch Restaurant,4.5,1052,west hollywood
coffee,,34.08321,-118.3464,Marugame Monzo,4.5,1051,west hollywood
cocktailbars,,34.08052,-118.26991000000001,Marugame Udon,4.0,184,los angeles
japanese,,34.0311016,-118.40083200000001,Maruya,4.0,734,culver city
cocktailbars,,34.08052,-118.26991000000001,Masa of Echo Park,4.0,184,los angeles
japanese,,34.02507,-118.41226999999999,Mateo's Ice Cream & Fruit Bars,4.5,693,culver city
bakeries,,34.10151,-118.30238,Matjip Chigae,4.0,169,west hollywood
tacos,,34.105472,-118.247701,Matsumoto,5.0,105,glendale
wine_bars,,34.083525,-118.36320900000001,Mauro's Cafe,4.5,272,west hollywood
wine_bars,,34.083525,-118.36320900000001,Max City BBQ,4.5,272,west hollywood
tradamerican,,34.04637485,-118.2508707,Meals by Genet,4.5,293,los angeles
tradamerican,,34.04637485,-118.2508707,Meat Love Korean BBQ,4.5,294,los angeles
diners,,34.066072,-118.233223,Meatzilla!,4.0,1030,los angeles
ramen,,34.10183737,-118.3007547,Mee and Greet,4.0,514,west hollywood
burgers,,34.101411,-118.341748,Meea's,3.5,1854,west hollywood
seafood,,34.06621,-118.23803999999998,Meizhou Dongpo Restaurant,3.5,679,los angeles
chinese,,34.06603994,-118.23762040000001,Mel's Fish Shack,4.0,213,los angeles
korean,,34.0527649,-118.30033,Melody,4.0,402,los angeles
mexican,,34.0720873,-118.367282,Melody Bar and Grill,4.0,948,west hollywood
newamerican,False,34.07586,-118.35247,Melrose Station,4.0,95,west hollywood
korean,,34.068589,-118.309513,Melrose Umbrella,5.0,18,west hollywood
korean,,34.064009999999996,-118.36707,Men Oh Tokushima Ramen,4.0,126,west hollywood
korean,,34.06232132,-118.340899,Mendocino Farms,4.5,2773,west hollywood
pizza,,34.0839,-118.35864,Mercado Hollywood,5.0,42,west hollywood
ramen,,34.05941,-118.292,Mercado Los Angeles,4.5,216,los angeles
ramen,,34.05941,-118.292,Mercado Taqueria,4.5,222,los angeles
cheesesteaks,,34.014196000000005,-118.282417,Merkato Ethiopian Restaurant & Market,4.5,1076,los angeles
latin,,34.047022,-118.21915,Mesa Thai Cuisine,4.5,595,los angeles
breakfast_brunch,,34.04635,-118.2511,Mesón Cafe,5.0,120,los angeles
korean,,34.066959999999995,-118.29206,MESSHALL,4.0,262,los angeles
asianfusion,,34.061477000000004,-118.299902,Messob Ethiopian Restaurant,4.5,276,los angeles
asianfusion,,34.061477000000004,-118.299902,Met Her At A Bar,4.5,275,los angeles
ramen,,34.14532,-118.36317,Mex Perú Gipsy,4.5,360,west hollywood
chicken_wings,,34.067454299999994,-118.30961909999999,Mexicali Taco & Co,4.5,549,west hollywood
chicken_wings,,34.067454299999994,-118.30961909999999,Mezcalero,4.5,551,west hollywood
chicken_wings,,34.067454299999994,-118.30961909999999,Mh Zh,4.5,551,west hollywood
chicken_wings,,34.067454299999994,-118.30961909999999,Mi Corazon,4.5,552,west hollywood
mexican,,34.07336,-118.2098,Mia Sushi,4.5,605,los angeles
chicken_wings,,34.067454299999994,-118.30961909999999,Miari Noodle House,4.5,552,west hollywood
filipino,False,34.08222,-118.30948000000001,Miceli's,5.0,59,west hollywood
gastropubs,False,34.12384,-118.26868,Miceli's Italian - Hollywood,4.5,4211,glendale
sushi,,34.0484675,-118.24024909999999,Michelangelo Ristorante,4.5,1283,los angeles
dimsum,,34.0655098,-118.2362747,Michin Dak,3.5,704,los angeles
dimsum,,34.0655098,-118.2362747,Mignon,3.5,705,los angeles
cambodian,,34.06392575,-118.2385995,Mike's Deli,4.5,203,los angeles
icecream,,34.06220272,-118.29756880000001,Mike's Deli 2,4.0,1105,los angeles
mongolian,,34.06177,-118.28725800000001,Mikkeller DTLA,4.5,183,los angeles
mongolian,,34.06177,-118.28725800000001,Milkfarm,4.5,183,los angeles
italian,,34.10480881,-118.2914047,Millet Crepe,4.0,1473,glendale
burgers,,34.07905579,-118.3611374,Millie's Cafe,4.0,1499,west hollywood
tradamerican,,34.09062583,-118.345579,Mimimyunga,3.0,61,west hollywood
taiwanese,False,34.05816758,-118.41731029999998,Miro,4.0,1136,beverly hills
asianfusion,,34.076029999999996,-118.32399,Mister Bossam,5.0,81,west hollywood
asianfusion,,34.076029999999996,-118.32399,Mister O's,5.0,81,west hollywood
greek,,34.10403902,-118.32879479999998,Mitsuru Cafe,4.5,258,west hollywood
mexican,,34.08079511,-118.386972,Mixtape,4.0,3975,beverly hills
pizza,,34.097718,-118.328681,Mixto Comida Latina,4.0,1164,west hollywood
mexican,,34.08079511,-118.386972,Mizlala,4.0,3977,beverly hills
mexican,,34.08079511,-118.386972,MJ's Grill,4.0,3981,beverly hills
korean,,34.0546201,-118.29149509999999,MOD Pizza,4.5,470,los angeles
seafood,,34.072706,-118.37251,Modan Eagle Rock Ramen,4.0,1637,west hollywood
japanese,,34.10144297,-118.3270847,Modern Eats,3.5,1837,west hollywood
pizza,,34.08346062,-118.29517539999999,Mohawk Bend,4.5,495,los angeles
pizza,,34.08346062,-118.29517539999999,Momed Atwater Village,4.5,497,los angeles
asianfusion,,34.04973,-118.23943999999999,Momo Sushi,3.5,1923,los angeles
food_court,,34.05062855,-118.24863529999999,Monarca Pasta & Grill,4.0,2483,los angeles
food_court,,34.05062855,-118.24863529999999,Monsieur Marcel,4.0,2486,los angeles
pizza,,34.05993083,-118.444317,Monte 52,3.5,2342,beverly hills
soulfood,,33.99309755,-118.25630430000001,Monty's Good Burger,4.0,314,huntington park
indonesian,,34.029081,-118.411699,Moodaepo II,4.0,1471,culver city
dimsum,,34.09779,-118.3183,Moon House Chinese Cuisine,4.5,567,west hollywood
breweries,,34.04795631,-118.2561892,Morton's The Steakhouse,4.5,654,los angeles
indonesian,False,34.059554399999996,-118.4201091,Moun Of Tunis Restaurant,4.0,2453,beverly hills
newamerican,,34.0771299,-118.38068,Mountain Cafe,4.5,1147,beverly hills
vegan,,34.05635905,-118.25093670000001,Mr Churro,4.0,875,los angeles
newamerican,,34.0771299,-118.38068,Mr. Sate,4.5,1150,beverly hills
newamerican,,34.0771299,-118.38068,Mrs Fish,4.5,1153,beverly hills
salad,,33.999359999999996,-118.41891000000001,Murakami Sushi,5.0,6,culver city
salad,,33.999359999999996,-118.41891000000001,Muraya,5.0,4,culver city
salad,,33.999359999999996,-118.41891000000001,Musso & Frank Grill,5.0,4,culver city
salad,,33.999359999999996,-118.41891000000001,My Little Dumpling,5.0,8,culver city
burgers,,34.04074,-118.42786000000001,My Ramen Bar,3.5,2804,culver city
sushi,,34.07616003,-118.3054077,My Thai,4.0,1342,west hollywood
salad,,33.999359999999996,-118.41891000000001,My Two Cents,5.0,8,culver city
cafes,,34.0522237,-118.37115,My Vegan Gold,4.5,435,beverly hills
newamerican,,34.08755,-118.33333,Myung Dong Kyoja,4.0,1869,west hollywood
newamerican,,34.08755,-118.33333,Myung In Dumplings,4.0,1870,west hollywood
mexican,,34.052409999999995,-118.30071000000001,Myungrang Hot Dog-California Market LA,4.0,2115,los angeles
mexican,,34.052409999999995,-118.30071000000001,n/naka,4.0,2117,los angeles
gastropubs,,34.06207586,-118.3455771,Naab Cafe,4.0,1080,west hollywood
pubs,,34.09918,-118.25887,Nabeeya,4.0,1595,glendale
mexican,,34.052409999999995,-118.30071000000001,Nadri Korean Tea House,4.0,2117,los angeles
mexican,,34.052409999999995,-118.30071000000001,Nam Won Gol,4.0,2120,los angeles
korean,,34.066959999999995,-118.30871,Natalee Thai,4.5,468,west hollywood
mexican,,34.052409999999995,-118.30071000000001,Natalie Peruvian Seafood Restaurant - Hollywood,4.0,2120,los angeles
tacos,,34.03437201,-118.23213030000001,Natraliart Jamaican Restaurant & Market,4.0,634,los angeles
bbq,,34.0821746,-118.34423259999998,Nature's Brew,4.0,1885,west hollywood
tacos,,34.03437201,-118.23213030000001,Neri's,4.0,635,los angeles
french,False,34.051909,-118.3843212,Nest,4.5,1243,beverly hills
tacos,,34.03437201,-118.23213030000001,New China Mongolian Bbq,4.0,636,los angeles
mexican,,34.07023951,-118.25044840000001,New Kamara,4.5,2004,los angeles
sushi,,34.072829999999996,-118.37388999999999,New York Bagel and Deli,4.0,1015,west hollywood
mexican,,34.048120000000004,-118.21146999999999,Next Door Lounge,4.5,2401,los angeles
mexican,,34.07023951,-118.25044840000001,Nic's on Beverly,4.5,2005,los angeles
mexican,,34.048120000000004,-118.21146999999999,Nick + Stef's Steakhouse,4.5,2403,los angeles
asianfusion,,34.0404035,-118.2535117,Nick's Cafe,5.0,660,los angeles
mexican,,34.048120000000004,-118.21146999999999,Nick's Coffee Shop,4.5,2403,los angeles
mexican,,34.046530600000004,-118.25067990000001,Nickel Diner,4.5,1701,los angeles
mexican,,34.046530600000004,-118.25067990000001,Night + Market Song,4.5,1702,los angeles
mexican,,34.046530600000004,-118.25067990000001,Nightshade,4.5,1703,los angeles
newamerican,,34.050689899999995,-118.2404783,Nishi Poke & Ramen Bistro,4.0,1096,los angeles
bbq,,34.09115,-118.30078,Noe Restaurant and Bar,4.5,519,west hollywood
tradamerican,,34.06081,-118.26733999999999,Nong La Cafe,3.5,401,los angeles
tradamerican,,34.06081,-118.26733999999999,Northern Cafe,3.5,401,los angeles
tradamerican,,34.06081,-118.26733999999999,Noshi Sushi,3.5,402,los angeles
tradamerican,,34.06081,-118.26733999999999,Oasis Mediterranean Cuisine,3.5,402,los angeles
southern,,34.04810715,-118.3262787,Oaxacan Quesadilla Cart,4.0,1360,west hollywood
southern,,34.04810715,-118.3262787,OB Bear,4.0,1361,west hollywood
cocktailbars,,34.09100091,-118.3631456,Ocha Classic Restaurant,4.0,235,west hollywood
butcher,,34.097640000000006,-118.3334,Odumak,4.0,529,west hollywood
butcher,,34.097640000000006,-118.3334,Oh My Crab,4.0,528,west hollywood
butcher,,34.097640000000006,-118.3334,Ohana BBQ,4.0,529,west hollywood
japanese,,34.0394075,-118.43034650000001,Ohana Superette,3.5,1012,culver city
japanese,,34.0394075,-118.43034650000001,Oi Asian Fusion,3.5,1012,culver city
breakfast_brunch,,34.057596999999994,-118.29774679999998,Okiboru House of Tsukemen,4.5,344,los angeles
cheesesteaks,,34.095845000000004,-118.287102,Okipoki,4.5,1057,glendale
korean,,34.05944,-118.28933,Olive Bistro & Catering,4.0,1025,los angeles
breakfast_brunch,,34.057596999999994,-118.29774679999998,Olson's Deli,4.5,345,los angeles
brazilian,,34.04665,-118.25616000000001,Olympic Noodle,4.5,196,los angeles
brazilian,,34.04665,-118.25616000000001,Omakase Teriyaki,4.5,197,los angeles
korean,False,34.057970000000005,-118.2944,Ombu Grill,4.0,34,los angeles
brazilian,,34.04665,-118.25616000000001,Ondal 2,4.5,197,los angeles
brazilian,,34.04665,-118.25616000000001,Ong Ga Nae Korean BBQ,4.5,198,los angeles
brazilian,,34.04665,-118.25616000000001,Oo-Kook Korean BBQ,4.5,198,los angeles
thai,,34.06876,-118.30948000000001,Oomasa,4.5,1109,west hollywood
filipino,,34.101511,-118.29306310000001,Oops! Sushi & Sake Bar,4.5,475,glendale
thai,,34.06876,-118.30948000000001,Open Sesame,4.5,1110,west hollywood
thai,,34.06876,-118.30948000000001,Openaire,4.5,1110,west hollywood
korean,,34.0639032,-118.3061281,Ord & Broadway,4.0,4764,west hollywood
brazilian,,34.0721669,-118.360551,Organix,4.0,1186,west hollywood
newamerican,False,34.0690575,-118.226105,Oriel Chinatown,4.0,835,los angeles
korean,,34.0639032,-118.3061281,Original Pantry Cafe,4.0,4765,west hollywood
korean,,34.0639032,-118.3061281,Orleans & York Deli,4.0,4768,west hollywood
korean,,34.0574299,-118.30658000000001,Orochon Ramen,4.0,103,west hollywood
korean,,34.0574299,-118.30658000000001,Orsa & Winston,4.0,103,west hollywood
chickenshop,False,34.0880681,-118.30896200000001,Osteria Cal Mare,4.5,2536,west hollywood
korean,,34.057970000000005,-118.2944,Osteria La Buca,4.0,32,los angeles
korean,,34.057970000000005,-118.2944,Osteria Mamma,4.0,33,los angeles
ramen,,34.04802670000001,-118.2400318,Osteria Mozza,4.0,514,los angeles
ramen,,34.04802670000001,-118.2400318,Ostrich Farm,4.0,515,los angeles
korean,,34.03458,-118.25761999999999,Otium,4.5,57,los angeles
steak,,34.04469633,-118.2653645,Otomisan Restaurant,4.0,1529,los angeles
korean,,34.03458,-118.25761999999999,OTOTO,4.5,57,los angeles
korean,False,34.0546201,-118.29149509999999,Oyabun,4.5,470,los angeles
korean,,34.063757,-118.29583799999999,Pa Ord Noodle,4.0,1466,los angeles
korean,,34.0478722,-118.32573729999999,Pace,4.0,154,west hollywood
korean,,34.063757,-118.29583799999999,Pacific Dining Car,4.0,1466,los angeles
vegetarian,,34.050409,-118.361676,Paco's Tacos,4.5,578,west hollywood
korean,,34.0478722,-118.32573729999999,Pailin Thai Cuisine,4.0,154,west hollywood
sushi,,34.04853129999999,-118.2402898,Palermo Italian Restaurant,4.0,1501,los angeles
sushi,,34.04853129999999,-118.2402898,Paley,4.0,1503,los angeles
ramen,False,34.05008091,-118.2401805,Palm Grove Ethiopian Restaurant,4.0,8329,los angeles
korean,,34.065414000000004,-118.3095703,Palms Thai Restaurant,4.5,2103,west hollywood
korean,,34.065414000000004,-118.3095703,Pampas Grill,4.5,2106,west hollywood
korean,,34.047509000000005,-118.32476299999999,Panini Kabob Grill,4.5,69,west hollywood
korean,,34.047509000000005,-118.32476299999999,Pann's Restaurant,4.5,69,west hollywood
ramen,,34.045277,-118.23849399999999,Pao Jao Dumpling House,4.0,442,los angeles
ramen,,34.045277,-118.23849399999999,Papa Cristo's,4.0,442,los angeles
asianfusion,,34.086859999999994,-118.29151999999999,Papa's Chicken,4.5,52,los angeles
korean,,34.06286026,-118.2975703,Papi Tacos & Churros,4.5,1554,los angeles
korean,,34.06286026,-118.2975703,Papilles Bistro,4.5,1555,los angeles
waffles,,34.09855002,-118.3221236,Paradocs Coffee and Tea,4.0,3817,west hollywood
korean,,34.06286026,-118.2975703,Park's BBQ,4.5,1557,los angeles
mexican,,34.047068100000004,-118.2843635,Paros Chicken,4.0,365,los angeles
cajun,,34.0254551,-118.32796599999999,PASTA e PASTA by Allegro,3.5,859,culver city
cajun,,34.0254551,-118.32796599999999,Pasta Sisters,3.5,859,culver city
vegan,False,34.077123,-118.25871399999998,Pasta Sisters - Culver City,4.0,2149,los angeles
breakfast_brunch,,33.978852,-118.40565,Pastina,4.0,622,culver city
korean,,34.06012,-118.29128,Patina Restaurant,4.5,1143,los angeles
chicken_wings,,34.0905951,-118.32558610000001,PBJ.LA,4.5,326,west hollywood
mideastern,,34.0533114,-118.3767968,Peking Tavern,4.5,172,beverly hills
korean,,34.0497189,-118.30918490000002,Penguin Fish & Chips,4.5,301,west hollywood
izakaya,,34.07181,-118.3655,Pepe's Tacos,4.0,1040,west hollywood
korean,,34.0497189,-118.30918490000002,Perch,4.5,302,west hollywood
japanese,,34.04806818,-118.25788419999999,Perfect Pita,4.5,353,los angeles
japanese,,34.04806818,-118.25788419999999,Petit Trois,4.5,354,los angeles
bbq,False,34.0637349,-118.2972751,Petite Taqueria,4.5,4112,los angeles
japanese,,34.04806818,-118.25788419999999,Petty Cash Taqueria & Bar,4.5,355,los angeles
cocktailbars,,33.99696036,-118.4315601,Pez Cantina,4.0,632,culver city
cocktailbars,,33.99696036,-118.4315601,Philippe the Original,4.0,633,culver city
japanese,,34.036251899999996,-118.24066880000001,Phillips Barbecue,5.0,53,los angeles
japanese,,34.036251899999996,-118.24066880000001,Pho 24,5.0,53,los angeles
korean,,34.0527349,-118.3055926,Pho 87,4.5,285,los angeles
italian,,34.07193839999999,-118.3884127,Pho Cafe,4.0,1196,beverly hills
italian,False,34.1037812,-118.28724790000001,Pho Hanoi 12,4.5,778,glendale
cocktailbars,,34.0637,-118.30821999999999,Pho Hoa Vietnamese Restaurant,4.0,460,west hollywood
cocktailbars,,34.0637,-118.30821999999999,Pho Legend,4.0,461,west hollywood
cocktailbars,,34.0637,-118.30821999999999,Pho Saigon Pearl,4.0,461,west hollywood
filipino,,34.06467,-118.2650419,Pho Thai Town,4.5,40,los angeles
newamerican,False,34.042289700000005,-118.2542114,Pig 'n Whistle,4.0,1342,los angeles
korean,False,34.06286026,-118.2975703,Pimai It's Thai,4.5,1557,los angeles
filipino,,34.06467,-118.2650419,Pinches Tacos,4.5,41,los angeles
wine_bars,,34.044503000000006,-118.24037,Pine & Crane,4.5,96,los angeles
wine_bars,,34.044503000000006,-118.24037,Pink Taco,4.5,96,los angeles
newamerican,,34.06372,-118.36446000000001,Pink's Hot Dogs,5.0,2,west hollywood
newamerican,,34.06372,-118.36446000000001,Pita Café,5.0,2,west hollywood
mediterranean,,34.083487899999994,-118.3518564,Pitchoun!,4.5,1076,west hollywood
gluten_free,,34.05734883,-118.4431159,Pizza Buona,4.0,1977,beverly hills
mexican,,34.03908028,-118.2404277,Pizza Next Door,4.0,1068,los angeles
newamerican,,34.06372,-118.36446000000001,Pizzanista!,4.0,5,west hollywood
newamerican,,34.06372,-118.36446000000001,Pizzeria Il Fico,4.0,5,west hollywood
indpak,,34.0256549,-118.294352,Pizzeria Mozza,4.0,297,los angeles
indpak,,34.0256549,-118.294352,Plan Check Kitchen & Bar,4.0,298,los angeles
ramen,,34.03892761,-118.4423404,Plancha Tacos,4.0,3109,culver city
newamerican,,34.05651451,-118.41521499999999,Plato,3.5,1365,beverly hills
korean,False,34.065414000000004,-118.3095703,Plum Tree Inn,4.5,2111,west hollywood
newamerican,,34.05651451,-118.41521499999999,Poke Me,3.5,1365,beverly hills
newamerican,,34.0470812,-118.2501365,Pokémolé,4.5,246,los angeles
taiwanese,,34.12083,-118.20465,PokeMotto,4.5,605,glendale
newamerican,,34.0470812,-118.2501365,Polka Polish Restaurant,4.5,247,los angeles
chicken_wings,,34.0624241,-118.2810091,Pollen,4.0,319,los angeles
latin,,34.01717897,-118.27835060000001,Pollo a La Brasa Western,5.0,272,los angeles
mexican,,34.035216999999996,-118.25591000000001,Pomodoro Trattoria,5.0,758,los angeles
latin,,34.01717897,-118.27835060000001,Poppy + Rose,5.0,273,los angeles
breakfast_brunch,,34.10150344,-118.3260355,Porchetta Republic,4.5,588,west hollywood
breakfast_brunch,,34.102959999999996,-118.28719,Porto's Bakery & Cafe,4.0,2727,glendale
newamerican,,34.05187005,-118.25205359999998,Portobanco's Restaurant,4.0,1269,los angeles
newamerican,,34.042289700000005,-118.2542114,Post & Beam,4.0,1340,los angeles
breakfast_brunch,,34.102959999999996,-118.28719,Pour Haus Wine Bar,4.0,2727,glendale
newamerican,False,34.0470812,-118.2501365,Poutine Brothers,4.5,248,los angeles
vegetarian,,34.06217,-118.23561000000001,Powerplant Superfood Cafe,4.5,639,los angeles
vegetarian,,34.06217,-118.23561000000001,Prank,4.5,639,los angeles
tex-mex,,34.099790000000006,-118.29021000000002,Preux & Proper,4.5,958,glendale
tex-mex,,34.099790000000006,-118.29021000000002,Prime Cutts,4.5,959,glendale
korean,,34.06929876,-118.30728390000002,Prime Pizza,4.5,357,west hollywood
foodstands,,34.07257747,-118.21469450000001,Proof Bakery,4.5,899,los angeles
ramen,False,34.05736144,-118.30676969999999,Proper Pizza and Pasta,4.5,4051,west hollywood
tex-mex,,34.099790000000006,-118.29021000000002,Prospect Gourmand,4.5,960,glendale
tex-mex,,34.099790000000006,-118.29021000000002,Providence,4.5,960,glendale
italian,False,34.08319,-118.33881000000001,Public Kitchen and Bar,4.0,2711,west hollywood
izakaya,,34.04539672,-118.2383287,Public School 213,3.5,1410,los angeles
tradamerican,,34.097487,-118.368268,Pura Vita,4.0,617,west hollywood
seafood,,34.12591,-118.26336,Purgatory Pizza,4.0,298,glendale
breakfast_brunch,,34.03269854,-118.343423,Qin West Noodle,4.0,751,culver city
cafes,,34.0768811,-118.25800690000001,Quarters Korean BBQ,4.5,232,los angeles
sandwiches,,34.04931885,-118.260798,R Bar,4.5,752,los angeles
cafes,,34.0768811,-118.25800690000001,Raffi's Place,4.5,232,los angeles
beerbar,,34.07754966,-118.2647322,Rahel Ethiopian Vegan Cuisine,4.0,2365,los angeles
korean,,34.057539500000004,-118.30725919999999,Rainbow Bar & Grill,4.5,86,west hollywood
tapasmallplates,,34.10052,-118.32927,Rakkan Ramen-DTLA,4.5,968,west hollywood
korean,,34.057539500000004,-118.30725919999999,Ramen Hood,4.5,90,west hollywood
korean,,34.057539500000004,-118.30725919999999,Ramen Koo,4.5,90,west hollywood
newamerican,,34.0690575,-118.226105,Ramen of York,4.0,835,los angeles
korean,,34.057539500000004,-118.30725919999999,Rao's - Los Angeles,4.5,92,west hollywood
korean,,34.057539500000004,-118.30725919999999,Rappahannock Oyster Bar - DTLA,4.5,92,west hollywood
burgers,,34.10430207,-118.2915813,Rascal,4.0,113,glendale
southern,,34.024758,-118.284446,Rasselbock L.A. Kitchen & Beer Garden,4.0,133,los angeles
korean,,34.0637349,-118.29437279999999,Raw Cane Super Juice Bar,4.0,1081,los angeles
italian,,34.046459000000006,-118.238403,Ray's and Stark Bar,4.5,700,los angeles
korean,,34.06279582,-118.29773929999999,Red Lion Tavern,4.5,463,los angeles
korean,,34.06279582,-118.29773929999999,Red's Flavor Table,4.5,460,los angeles
korean,,34.06279582,-118.29773929999999,Redbird,4.5,461,los angeles
italian,,34.08333668,-118.3139372,Reggie's Deli & Cafe,4.0,1850,west hollywood
bars,,34.101913,-118.336041,République,4.0,17,west hollywood
bars,,34.101913,-118.336041,Restaurante Tierra Caliente,4.0,18,west hollywood
bars,,34.101913,-118.336041,Revolutionario: North African Tacos,4.0,19,west hollywood
chicken_wings,,34.0835736,-118.34313470000001,Rice & Nori,4.0,855,west hollywood
chicken_wings,,34.0835736,-118.34313470000001,Rice Guys,4.0,855,west hollywood
chicken_wings,,34.0835736,-118.34313470000001,RiceBox,4.0,856,west hollywood
chicken_wings,,34.0835736,-118.34313470000001,Rich's BBQ,4.0,856,west hollywood
indpak,,34.04013967,-118.3085835,Ricky's Fish Tacos,4.0,223,los angeles
southern,,34.061516999999995,-118.23971599999999,Rikas Peruvian Cuisine,4.5,5619,los angeles
foodtrucks,,34.114824,-118.26994499999999,RioZonas Açaí,4.5,1158,glendale
southern,,34.061516999999995,-118.23971599999999,Road To Seoul,4.5,5624,los angeles
southern,,34.061516999999995,-118.23971599999999,Robata JINYA,4.5,5624,los angeles
southern,,34.061516999999995,-118.23971599999999,Robert's Russian Cuisine,4.5,5630,los angeles
bbq,,34.05381,-118.29196,ROC Sawtelle,4.0,1652,los angeles
southern,,34.061516999999995,-118.23971599999999,Rocco's Italian Market and Deli,4.5,5630,los angeles
italian,,34.07353573,-118.3595324,Rocco's Neighborhood Pizza,4.0,1797,west hollywood
thai,,34.09784367,-118.31833770000001,Rock'N Fish,4.5,1711,west hollywood
thai,,34.09784367,-118.31833770000001,RockSugar Southeast Asian Kitchen,4.5,1712,west hollywood
southern,,34.0498186,-118.3596124,Rockwell Table & Stage,4.5,597,west hollywood
chinese,,34.09807939,-118.3446622,Rodini Park,4.0,559,west hollywood
chinese,,34.09807939,-118.3446622,Roji Bakery,4.0,561,west hollywood
japanese,,34.08337872,-118.3455963,Roll Call,4.5,526,west hollywood
mexican,,34.0715151,-118.3622707,Roll Roll Roll,4.0,1106,west hollywood
sandwiches,,34.0974499,-118.34994099999999,Ronnie's Diner,4.5,660,west hollywood
mediterranean,,34.072590999999996,-118.370769,Ronnie's Kickin Chicken,4.5,160,west hollywood
italian,,34.0711906,-118.35994170000001,Roots & Rye,4.0,1164,west hollywood
mediterranean,,34.072590999999996,-118.370769,RoRo's Chicken,4.5,160,west hollywood
cafes,False,34.05218,-118.28737,Rosa Mexicano,5.0,88,los angeles
cafes,,34.0344334,-118.29168490000002,Rosalind's Ethiopian Restaurant,4.0,693,los angeles
mediterranean,False,34.047351500000005,-118.3762949,Rosaline,4.5,258,culver city
breakfast_brunch,,34.151896,-118.352076,Roscoe's House of Chicken & Waffles,4.5,382,burbank
breakfast_brunch,,34.151896,-118.352076,Rossoblu,4.5,381,burbank
coffee,,34.08358629999999,-118.3623821,Ruam Mitr,4.5,428,west hollywood
himalayan,,34.016931,-118.41051000000002,RUBIES+DIAMONDS,4.0,1079,culver city
gastropubs,,34.10532,-118.27257,Ruen Pair,4.0,847,glendale
yoga,,34.0675929,-118.3615449,Running Goose,4.5,129,west hollywood
italian,,34.10186222,-118.3124936,Rutt's Hawaiian Cafe,4.5,356,west hollywood
tradamerican,,34.158376000000004,-118.36992,S'moreology,4.0,973,burbank
tradamerican,,34.158376000000004,-118.36992,Sabor Colombiano,4.0,974,burbank
ramen,,34.058440000000004,-118.3087,Sabor Nicaragüense Restaurant,4.5,202,west hollywood
vegetarian,,34.092237,-118.282076,Saddle Ranch Chop House,4.0,691,los angeles
italian,False,34.03402,-118.22918999999999,Sage Plant Based Bistro and Brewery Echo Park,4.5,5857,los angeles
ramen,,34.058440000000004,-118.3087,Sage Vegan Bistro - Echo Park,4.5,204,west hollywood
ramen,,34.058440000000004,-118.3087,Saikai Ramen Bar,4.5,205,west hollywood
italian,,34.02647,-118.24328999999999,Saint Felix,5.0,148,los angeles
italian,,34.02647,-118.24328999999999,Saint Marc,5.0,148,los angeles
juicebars,,34.06876,-118.26261000000001,Sakana Sushi Lounge,4.5,726,los angeles
mexican,False,34.0715151,-118.3622707,Sake House Miro,4.0,1107,west hollywood
burgers,,34.099540000000005,-118.32911000000001,Sakura Japanese Restaurant,4.0,2031,west hollywood
italian,,34.103041999999995,-118.29185700000001,Salazar,4.0,945,glendale
italian,,34.103041999999995,-118.29185700000001,Salt's Cure,4.0,945,glendale
italian,,34.0257771,-118.28414009999999,Same Same,4.5,45,los angeles
breweries,,34.055713,-118.23663,Sanamluang Cafe,4.0,243,los angeles
breweries,,34.055713,-118.23663,Santuari Restaurant,4.0,244,los angeles
breweries,,34.055713,-118.23663,Sapp Coffee Shop,4.0,245,los angeles
burgers,,33.9537021,-118.39677179999998,Sarita's Pupuseria,4.0,1483,el segundo
burgers,,33.9537021,-118.39677179999998,Sawyer,4.0,1484,el segundo
indpak,,34.095583000000005,-118.28517,Sea Dragon Chinese Restaurant,4.5,2205,glendale
persian,,34.04764,-118.43542,Sea Salt Poke,4.5,856,beverly hills
indpak,,34.095583000000005,-118.28517,Seasalt Fish Grill,4.5,2206,glendale
indpak,,34.095583000000005,-118.28517,Seaweed Hand Roll Bar,4.5,2207,glendale
coffee,,34.04967263,-118.24186920000001,Señor Fish,4.0,993,los angeles
indpak,,34.0621767,-118.34814490000001,Señorita's Tamales,4.0,1254,west hollywood
indpak,,34.091245,-118.3288067,Seongbukdong,4.0,264,west hollywood
gastropubs,False,34.06449,-118.30891000000001,Seorae Village Pork BBQ,4.0,78,west hollywood
newamerican,,34.0486928,-118.2556854,Severance,4.0,1238,los angeles
japanese,,34.04638,-118.23543000000001,Shabu Hyang,4.0,518,los angeles
japanese,,34.04638,-118.23543000000001,Shabu Shabu House,4.0,518,los angeles
latin,,34.08321,-118.32848,ShaBuShi,4.5,282,west hollywood
thai,,34.07411227,-118.3094354,Shabuya,4.0,588,west hollywood
vietnamese,,34.1045859,-118.330197,Shake Shack,4.0,842,west hollywood
sushi,,34.061407,-118.309408,Shaky Alibi,4.0,1311,west hollywood
vegan,,34.09121041,-118.27942720000001,Shamshiri Grill,4.0,1159,los angeles
vietnamese,,34.1045859,-118.330197,Shaquille’s,4.0,841,west hollywood
bars,,34.10605,-118.25693999999999,SharksTeeth,4.5,332,glendale
bars,,34.10605,-118.25693999999999,Shekarchi Restaurant,4.5,332,glendale
ramen,False,33.9583942,-118.3941804,Shibumi,4.5,1180,inglewood
dimsum,,34.09779,-118.3183,Shin Ramen,4.5,566,west hollywood
bars,,34.05011891,-118.24146110000001,Shin-Sen-Gumi Hakata Ramen - Little Tokyo,4.0,897,los angeles
bars,,34.05011891,-118.24146110000001,Shintaro Sushi,4.0,898,los angeles
sushi,,34.0491747,-118.2394231,Shojin Culver City,4.0,305,los angeles
sushi,,34.06068,-118.30621000000001,Shojin Downtown,4.5,44,west hollywood
sushi,,34.08449667,-118.38426670000001,Shrimp Daddy,4.5,67,beverly hills
sushi,,34.08449667,-118.38426670000001,Shuto Izakaya,4.5,68,beverly hills
breakfast_brunch,,34.01242,-118.30925,Siam Sunset,4.5,212,inglewood
breakfast_brunch,,34.02876,-118.27516999999999,Sidewalk Grill,4.0,2009,los angeles
breakfast_brunch,,34.02876,-118.27516999999999,Silverlake Ramen,4.0,2010,los angeles
breakfast_brunch,,34.02876,-118.27516999999999,Simpang Asia,4.0,2010,los angeles
breakfast_brunch,,34.02876,-118.27516999999999,Simple Things 3rd Street,4.0,2011,los angeles
breakfast_brunch,,34.02876,-118.27516999999999,Simply D'Licious,4.0,2011,los angeles
mideastern,,34.07182,-118.36556000000002,Simply Pho You,4.0,260,west hollywood
mideastern,,34.07182,-118.36556000000002,Simply Wholesome,4.0,261,west hollywood
mideastern,,34.020886700000005,-118.40270790000001,Singapore's Banana Leaf,4.5,73,culver city
mideastern,,34.020886700000005,-118.40270790000001,Sinopot Hot Pot 嗨锅,4.5,73,culver city
korean,,34.05618286,-118.30940249999999,Sizzler,4.0,617,west hollywood
italian,,34.045168,-118.25652600000001,Sky's Gourmet Tacos,4.0,1601,los angeles
newamerican,,34.10394,-118.3248,Slab,4.0,80,west hollywood
brazilian,False,34.061358,-118.31045300000001,Slicey's Pizza,4.5,1981,west hollywood
korean,,34.05215799,-118.2921982,Slurpin' Ramen Bar,4.5,34,los angeles
korean,,34.06012,-118.29128,Small Town,4.5,88,los angeles
salvadoran,,34.0763908,-118.3068031,Smorgasburg,4.0,399,west hollywood
korean,,34.052440000000004,-118.29234,SOL Mexican Cocina,4.0,356,los angeles
korean,,34.06273,-118.30946000000002,Somni,4.0,197,west hollywood
korean,,34.06125,-118.28738,Son of a Gun,4.5,36,los angeles
korean,,34.06125,-118.28738,Song Hak Korean BBQ 松鹤韩国烤肉烤肠,4.5,37,los angeles
chicken_wings,,34.0905951,-118.32558610000001,SongDo Seafood,4.5,324,west hollywood
chicken_wings,,34.0905951,-118.32558610000001,Sonoratown,4.5,325,west hollywood
hawaiian,,34.00442569,-118.4216071,Sonoritas Prime Tacos,4.0,1650,culver city
chicken_wings,,34.0905951,-118.32558610000001,Soom Soom Fresh Mediterranean,4.5,325,west hollywood
thai,,34.06876,-118.30948000000001,Soot Bull Jeep,4.5,1111,west hollywood
chicken_wings,,34.0905951,-118.32558610000001,Soowon Galbi KBBQ Restaurant,4.5,326,west hollywood
chicken_wings,,34.0905951,-118.32558610000001,Soregashi,4.5,326,west hollywood
breakfast_brunch,,34.08307,-118.28426999999999,Sorra,4.5,193,los angeles
breakfast_brunch,,34.08307,-118.28426999999999,Souffles,4.5,193,los angeles
breakfast_brunch,,34.08307,-118.28426999999999,Southland Beer,4.5,194,los angeles
korean,False,34.04847,-118.30866999999999,Spago,4.0,3653,los angeles
breakfast_brunch,,34.08307,-118.28426999999999,Spare Tire Kitchen & Tavern,4.5,194,los angeles
korean,,34.06929876,-118.30728390000002,Spartina,4.5,357,west hollywood
ramen,,34.04867,-118.25753,Speranza,4.0,325,los angeles
pizza,False,34.08325224,-118.3388012,Spice Affair Beverly Hills Indian Restaurant,4.0,4166,west hollywood
pizza,,34.09100997,-118.2977629,Spicy BBQ Restaurant,4.5,1101,west hollywood
ramen,,34.04867,-118.25753,Spitz - Eagle Rock,4.0,326,los angeles
thai,,34.09853771,-118.30408840000001,Spitz - Little Tokyo,3.5,1923,west hollywood
thai,,34.09853771,-118.30408840000001,Spitz - Los Feliz,3.5,1924,west hollywood
mexican,,34.021479299999996,-118.40251509999999,Spoke Bicycle Cafe,4.0,1591,culver city
korean,,34.0622606,-118.2975594,Spoon & Pork,4.0,857,los angeles
korean,,34.0622606,-118.2975594,Spoon By H,4.0,858,los angeles
breakfast_brunch,,34.072893,-118.37178999999999,Spread Mediterranean Kitchen,4.0,2248,west hollywood
breakfast_brunch,,34.06301,-118.30622,Spring Street Bar,4.0,1192,west hollywood
steak,,34.06783442,-118.376046,Spring Street Smoke House,4.0,3858,beverly hills
breakfast_brunch,,34.072893,-118.37178999999999,Sqirl,4.0,2249,west hollywood
breakfast_brunch,,34.072893,-118.37178999999999,Square One Dining,4.0,2249,west hollywood
korean,False,34.06012,-118.29128,Ssa Rit Gol,4.5,1143,los angeles
breakfast_brunch,,34.072893,-118.37178999999999,Ssam Korean BBQ,4.0,2250,west hollywood
breakfast_brunch,,34.072893,-118.37178999999999,ST. ANNE'S,4.0,2250,west hollywood
mediterranean,,34.13318253,-118.35715479999999,Star Night,4.5,1939,west hollywood
newamerican,,34.048111,-118.25834499999999,Stella Barra Pizzeria,4.5,334,los angeles
newamerican,,34.048111,-118.25834499999999,Stevie's Creole Cafe,4.5,339,los angeles
newamerican,,34.048111,-118.25834499999999,Sticky Rice,4.5,339,los angeles
burgers,,34.095160299999996,-118.28314009999998,Stone Grill,4.5,739,glendale
newamerican,,34.048111,-118.25834499999999,Stout Burgers & Beers,4.5,347,los angeles
newamerican,,34.048111,-118.25834499999999,Street Food Of Seoul,4.5,347,los angeles
vegan,,34.083420000000004,-118.37011000000001,Street Level Cafe,4.0,1947,west hollywood
italian,,34.1037812,-118.28724790000001,Street Tacos and Grill,4.5,776,glendale
korean,,34.06383879,-118.29682790000001,Suehiro Cafe,4.5,106,los angeles
korean,,34.06383879,-118.29682790000001,SUGARFISH by sushi nozawa,4.5,107,los angeles
italian,,34.0786401,-118.3613451,Sulga Jinju Gom Tang House of Beef Soup,4.0,1545,west hollywood
italian,,34.0786401,-118.3613451,Summer Buffalo,4.0,1547,west hollywood
korean,,34.06367623,-118.2954743,Sun Nong Dan,4.5,619,los angeles
korean,,34.06367623,-118.2954743,SunCafe Organic,4.5,617,los angeles
indpak,,34.076440000000005,-118.34711000000001,Sunnin Lebanese Cafe,4.5,836,west hollywood
lounges,,33.99689,-118.42653999999999,Sunny's Sushi Hut,4.0,1467,culver city
korean,,34.06663548,-118.30873840000001,Super Tortas DF,4.5,151,west hollywood
persian,,34.12988346,-118.3487304,Supremo,4.5,142,west hollywood
kosher,,34.0540991,-118.3809107,Sushi Enya,4.5,225,beverly hills
japanese,,34.047201799999996,-118.2388601,Sushi Fumi,4.5,607,los angeles
japanese,,34.047201799999996,-118.2388601,Sushi Gen,4.5,607,los angeles
japanese,,34.062180700000006,-118.348153,Sushi Go 55,4.5,1514,west hollywood
ramen,,34.07755,-118.37695,Sushi Hon,4.5,176,west hollywood
ramen,,34.07755,-118.37695,Sushi Ippo,4.5,177,west hollywood
ramen,,34.10376,-118.3284,Sushi One,4.5,65,west hollywood
newamerican,,34.0833651,-118.3242882,Sushi Ye,4.5,491,west hollywood
newamerican,,34.0833651,-118.3242882,Sushi Zo,4.5,492,west hollywood
french,,34.13921,-118.20414,SushiStop,4.5,1385,glendale
bbq,,34.0637349,-118.2972751,Sustainabowl,4.5,4111,los angeles
bbq,,34.0637349,-118.2972751,Sweet Chick,4.5,4112,los angeles
mideastern,,34.041509999999995,-118.23261000000001,Sweet Lady Jane Bakery,4.5,1066,los angeles
japanese,,33.96185,-118.4214,sweetgreen,4.0,1403,el segundo
cocktailbars,,34.07294,-118.37494,Swingers Diner,4.0,1834,west hollywood
japanese,,33.96185,-118.4214,Ta-eem Grill,4.0,1405,el segundo
seafood,,34.04903713,-118.2546909,Taco Zone,4.0,1996,los angeles
hotdog,,34.06577,-118.30847,Tacos Delta,4.5,685,west hollywood
chinese,,34.053655,-118.319659,Tacos El Compita,4.5,540,west hollywood
sushi,,33.95771303,-118.39597409999999,Tacos Los Poblanos,4.0,618,el segundo
sandwiches,,34.05165,-118.2552,Tacos Tu Madre,4.5,764,los angeles
sushi,,33.95771303,-118.39597409999999,Tacos Tumbras a Tomas,4.0,617,el segundo
lounges,,34.092321999999996,-118.3383862,Tacos Villa Corona,4.0,1049,west hollywood
vegan,,34.077123,-118.25871399999998,Tacos y Birria La Unica,4.0,2150,los angeles
breakfast_brunch,,34.0532,-118.37709,Tactile Coffee,4.0,803,beverly hills
sushi,,33.95771303,-118.39597409999999,Taix French Restaurant,4.0,619,el segundo
mediterranean,,34.076017,-118.3525949,Taj Mahal of India Restaurant,4.0,681,west hollywood
ramen,,34.004959899999996,-118.43359,Takami Sushi & Robata Restaurant,4.5,2210,culver city
breweries,,34.04795631,-118.2561892,Tam O'Shanter,4.5,653,los angeles
breweries,,34.04795631,-118.2561892,Tamales Alberto,4.5,654,los angeles
indonesian,,34.050016299999996,-118.24335659999998,TAO Asian Bistro,4.5,391,los angeles
indonesian,,34.050016299999996,-118.24335659999998,Taqueria Los Anaya,4.5,391,los angeles
wine_bars,,34.06836097,-118.343933,Tara's Himalayan Cuisine,4.5,89,west hollywood
japacurry,,34.06191,-118.31437,Tart Restaurant,4.5,211,west hollywood
breakfast_brunch,,34.102959999999996,-118.28719,Taste of Tehran,4.0,2726,glendale
japacurry,,34.06191,-118.31437,Taste on Melrose,4.5,212,west hollywood
sushi,,34.04763906,-118.2477476,Tasty Grill,4.5,2578,los angeles
sushi,,34.04763906,-118.2477476,Tasty Noodle House,4.5,2580,los angeles
sushi,,34.06372,-118.36446000000001,Tatsu Ramen,5.0,7,west hollywood
sushi,,34.06372,-118.36446000000001,Taylor's Steakhouse,5.0,8,west hollywood
pakistani,,34.0693318,-118.2925028,TBLA Catering & Cafe,4.5,812,los angeles
sushi,,34.06372,-118.36446000000001,Te'Kila,5.0,8,west hollywood
filipino,,34.095634000000004,-118.29272900000001,Teddy's Red Tacos,4.5,941,glendale
sushi,,34.06372,-118.36446000000001,Ten Ramen,5.0,9,west hollywood
sushi,,34.06372,-118.36446000000001,Ten-Raku,5.0,9,west hollywood
italian,,34.0907745,-118.2779437,Tengoku Ramen Bar,3.5,378,los angeles
mexican,,34.05077936,-118.2490361,Tenno Sushi,4.5,981,los angeles
sushi,,34.07531437,-118.3235785,Tere's Mexican Grill,4.0,396,west hollywood
mexican,,34.04675,-118.28246999999999,Terra,3.5,1003,los angeles
mexican,,34.04675,-118.28246999999999,Terra Cotta,3.5,1004,los angeles
coffee,,34.057131700000006,-118.3639872,Terroni,4.5,372,west hollywood
breakfast_brunch,,34.04510085,-118.251948,Terroni Downtown,3.5,1907,los angeles
mexican,,34.04675,-118.28246999999999,TGI Korean BBQ,3.5,1004,los angeles
breakfast_brunch,,34.05744023,-118.3451571,Thai Angel,5.0,216,west hollywood
korean,,34.052144,-118.310428,Thai Patio,4.0,1614,west hollywood
izakaya,,34.04668989,-118.2385837,Thank U Pho,4.5,335,los angeles
mediterranean,,34.1002441,-118.29061019999999,Thank You For Coming,4.0,429,glendale
mexican,,34.00973815,-118.26528590000002,The 3rd Stop,4.5,422,los angeles
mediterranean,,34.1002441,-118.29061019999999,The 8th Notch,4.0,429,glendale
chicken_wings,,34.0628631,-118.30626720000001,The Apple Pan,4.0,172,west hollywood
chicken_wings,,34.0628631,-118.30626720000001,The Backhouse,4.0,172,west hollywood
cafes,,34.06273,-118.30946000000002,The Bazaar by José Andrés,4.0,630,west hollywood
korean,,34.06012,-118.29128,The Bento Place,4.5,1142,los angeles
korean,,34.06012,-118.29128,The Black Cat,4.5,1143,los angeles
korean,,34.025032,-118.28546499999999,The Black Fig,4.5,150,los angeles
korean,,34.025032,-118.28546499999999,The Black Sheep,4.5,150,los angeles
korean,,34.025032,-118.28546499999999,The Boiling Crab,4.5,151,los angeles
korean,,34.025032,-118.28546499999999,The Buffalo Spot,4.5,151,los angeles
bbq,,34.13742,-118.1954,The Bun Shop,4.0,606,south pasadena
bbq,,34.13742,-118.1954,The Burrow,4.0,607,south pasadena
mexican,,34.02450481,-118.41118119999999,"The Butcher, The Baker, The Cappuccino Maker",3.5,560,culver city
hotdog,False,34.04560471,-118.2360611,The Capri Italian,4.0,8184,los angeles
mexican,,34.02450481,-118.41118119999999,The Carving Board,3.5,561,culver city
korean,,34.04777,-118.25684,The Cheesecake Factory,4.5,45,los angeles
korean,,34.04777,-118.25684,THE CLOUDY GARLIC,4.5,46,los angeles
sushi,,34.0484675,-118.24024909999999,The Coffee Company,4.5,1283,los angeles
diners,,34.046219,-118.24899199999999,The Coop Pizza,4.0,2394,los angeles
sushi,,34.0484675,-118.24024909999999,The Cork,4.5,1283,los angeles
korean,,34.04909474,-118.240458,The Counter Downtown LA,4.0,323,los angeles
grocery,,34.052237,-118.30851499999999,The Crack Shack,4.0,276,west hollywood
chicken_wings,,34.06012,-118.29128,The Den on Sunset,4.0,498,los angeles
grocery,,34.052237,-118.30851499999999,The Dog Cafe,4.0,276,west hollywood
japanese,,34.04883,-118.24146999999999,The Doughroom,3.5,997,los angeles
japanese,,34.04883,-118.24146999999999,The Dragon and Meeple,3.5,997,los angeles
vietnamese,,34.053337799999994,-118.3089351,The Dresden Restaurant,4.5,602,west hollywood
asianfusion,,34.050109899999995,-118.25793999999999,The Edmon,4.0,147,los angeles
asianfusion,,34.050109899999995,-118.25793999999999,The Empanada Factory,4.0,147,los angeles
cafes,,34.0522237,-118.37115,The Escondite,4.5,435,beverly hills
asianfusion,,34.050109899999995,-118.25793999999999,The Exchange Restaurant,4.0,149,los angeles
